[{"name": "Aach (Hegau)", "url": "https://de.wikipedia.org/wiki/Aach_(Hegau)", "name_url": "Aach_(Hegau)", "lat_lng": {"lat": "47.845555555556", "lng": "8.8516666666667"}, "land": "Baden-W\u00fcrttemberg", "kreis": "Konstanz", "height": "545\u00a0m \u00fc.\u00a0NHN\n", "size": "10,68\u00a0km2\n", "inhabitants": "2296 (31.\u00a0Dez.\u00a02018)[1]\n", "inhabitants_km": "215\u00a0Einwohner je km2\n", "founded": {"txt": "1283 Aach", "year": "1283"}}, {"name": "Aachen", "url": "https://de.wikipedia.org/wiki/Aachen", "name_url": "Aachen", "lat_lng": {"lat": "50.776666666667", "lng": "6.0836111111111"}, "land": "Nordrhein-Westfalen", "kreis": "St\u00e4dteregion Aachen", "height": "175\u00a0m \u00fc.\u00a0NHN\n", "size": "160,85\u00a0km2\n", "inhabitants": "247.380 (31.\u00a0Dez.\u00a02018)[1]\n", "inhabitants_km": "1538\u00a0Einwohner je km2\n", "first_mentioned": {"txt": "765 Aachen, erste urkundliche Erw\u00e4hnung als \u201eAquis villa\u201c", "year": "765"}, "founded": {"txt": "1166 Aachen", "year": "1166"}}, {"name": "Aalen", "url": "https://de.wikipedia.org/wiki/Aalen", "name_url": "Aalen", "lat_lng": {"lat": "48.837222222222", "lng": "10.093611111111"}, "land": "Baden-W\u00fcrttemberg", "kreis": "Ostalbkreis", "height": "430\u00a0m \u00fc.\u00a0NHN\n", "size": "146,63\u00a0km2\n", "inhabitants": "68.456 (31.\u00a0Dez.\u00a02018)[1]\n", "inhabitants_km": "467\u00a0Einwohner je km2\n", "first_mentioned": {"txt": "1136 Aalen, erste urkundliche Erw\u00e4hnung", "year": "1136"}, "founded": {"txt": "1339 Aalen", "year": "1339"}}, {"name": "Abenberg", "url": "https://de.wikipedia.org/wiki/Abenberg", "name_url": "Abenberg", "lat_lng": {"lat": "49.2425", "lng": "10.961111111111"}, "land": "Bayern", "kreis": "Roth", "height": "414\u00a0m \u00fc.\u00a0NHN\n", "size": "48,41\u00a0km2\n", "inhabitants": "5511 (31.\u00a0Dez.\u00a02018)[1]\n", "inhabitants_km": "114\u00a0Einwohner je km2\n", "founded": {"txt": "1299 Abenberg", "year": "1299"}}, {"name": "Abensberg", "url": "https://de.wikipedia.org/wiki/Abensberg", "name_url": "Abensberg", "lat_lng": {"lat": "48.816944444444", "lng": "11.848611111111"}, "land": "Bayern", "kreis": "Kelheim", "height": "370\u00a0m \u00fc.\u00a0NHN\n", "size": "60,29\u00a0km2\n", "inhabitants": "13.946 (31.\u00a0Dez.\u00a02018)[1]\n", "inhabitants_km": "231\u00a0Einwohner je km2\n", "founded": {"txt": "1348 Abensberg", "year": "1348"}}, {"name": "Achern", "url": "https://de.wikipedia.org/wiki/Achern", "name_url": "Achern", "lat_lng": {"lat": "48.631388888889", "lng": "8.0738888888889"}, "land": "Baden-W\u00fcrttemberg", "kreis": "Ortenaukreis", "height": "145\u00a0m \u00fc.\u00a0NHN\n", "size": "65,24\u00a0km2\n", "inhabitants": "25.630 (31.\u00a0Dez.\u00a02018)[1]\n", "inhabitants_km": "393\u00a0Einwohner je km2\n", "founded": {"txt": "1808 Achern", "year": "1808"}}, {"name": "Achim (Landkreis Verden)", "url": "https://de.wikipedia.org/wiki/Achim_(Landkreis_Verden)", "name_url": "Achim_(Landkreis_Verden)", "lat_lng": {"lat": "53.015277777778", "lng": "9.0341666666667"}, "land": "Niedersachsen", "kreis": "Verden", "height": "15\u00a0m \u00fc.\u00a0NHN\n", "size": "68,01\u00a0km2\n", "inhabitants": "31.911 (31.\u00a0Dez.\u00a02018)[1]\n", "inhabitants_km": "469\u00a0Einwohner je km2\n", "first_mentioned": {"txt": "1091 Achim (Weser), erste urkundliche Erw\u00e4hnung (Stadt seit 1949)", "year": "1091"}, "founded": {"txt": "1949 Achim", "year": "1949"}}, {"name": "Adelsheim", "url": "https://de.wikipedia.org/wiki/Adelsheim", "name_url": "Adelsheim", "lat_lng": {"lat": "49.404722222222", "lng": "9.3891666666667"}, "land": "Baden-W\u00fcrttemberg", "kreis": "Neckar-Odenwald-Kreis", "height": "226\u00a0m \u00fc.\u00a0NHN\n", "size": "43,84\u00a0km2\n", "inhabitants": "4973 (31.\u00a0Dez.\u00a02018)[1]\n", "inhabitants_km": "113\u00a0Einwohner je km2\n", "founded": {"txt": "1374 Adelsheim", "year": "1374"}}, {"name": "Adenau", "url": "https://de.wikipedia.org/wiki/Adenau", "name_url": "Adenau", "lat_lng": {"lat": "50.383333333333", "lng": "6.9333333333333"}, "land": "Rheinland-Pfalz", "kreis": "Ahrweiler", "height": "300\u00a0m \u00fc.\u00a0NHN\n", "size": "18,56\u00a0km2\n", "inhabitants": "2962 (31.\u00a0Dez.\u00a02018)[1]\n", "inhabitants_km": "160\u00a0Einwohner je km2\n"}, {"name": "Adorf/Vogtl.", "url": "https://de.wikipedia.org/wiki/Adorf/Vogtl.", "name_url": "Adorf/Vogtl.", "lat_lng": {"lat": "50.316666666667", "lng": "12.266666666667"}, "land": "Sachsen", "kreis": "Vogtlandkreis", "height": "494\u00a0m \u00fc.\u00a0NHN\n", "size": "42,97\u00a0km2\n", "inhabitants": "4919 (31.\u00a0Dez.\u00a02018)[1]\n", "inhabitants_km": "114\u00a0Einwohner je km2\n", "founded": {"txt": "1293 Adorf/Vogtl.", "year": "1293"}}, {"name": "Ahaus", "url": "https://de.wikipedia.org/wiki/Ahaus", "name_url": "Ahaus", "lat_lng": {"lat": "52.075555555556", "lng": "7.0066666666667"}, "land": "Nordrhein-Westfalen", "height": "50\u00a0m \u00fc.\u00a0NHN\n", "size": "151,24\u00a0km2\n", "inhabitants": "39.223 (31.\u00a0Dez.\u00a02018)[1]\n", "inhabitants_km": "259\u00a0Einwohner je km2\n", "founded": {"txt": "1030 Ahaus", "year": "1030"}}, {"name": "Ahlen", "url": "https://de.wikipedia.org/wiki/Ahlen", "name_url": "Ahlen", "lat_lng": {"lat": "51.763333333333", "lng": "7.8911111111111"}, "land": "Nordrhein-Westfalen", "height": "80\u00a0m \u00fc.\u00a0NHN\n", "size": "123,13\u00a0km2\n", "inhabitants": "52.582 (31.\u00a0Dez.\u00a02018)[1]\n", "inhabitants_km": "427\u00a0Einwohner je km2\n", "first_mentioned": {"txt": "1224 Ahlen, erste Erw\u00e4hnung als Stadt", "year": "1224"}}, {"name": "Ahrensburg", "url": "https://de.wikipedia.org/wiki/Ahrensburg", "name_url": "Ahrensburg", "lat_lng": {"lat": "53.673417", "lng": "10.239242"}, "land": "Schleswig-Holstein", "height": "42\u00a0m \u00fc.\u00a0NHN\n", "size": "35,3\u00a0km2\n", "inhabitants": "33.472 (31.\u00a0Dez.\u00a02018)[1]\n", "inhabitants_km": "948\u00a0Einwohner je km2\n", "founded": {"txt": "1949 Ahrensburg", "year": "1949 "}}, {"name": "Aichach", "url": "https://de.wikipedia.org/wiki/Aichach", "name_url": "Aichach", "lat_lng": {"lat": "48.462777777778", "lng": "11.130555555556"}, "land": "Bayern", "kreis": "Aichach-Friedberg", "height": "446\u00a0m \u00fc.\u00a0NHN\n", "size": "92,87\u00a0km2\n", "inhabitants": "21.434 (31.\u00a0Dez.\u00a02018)[1]\n", "inhabitants_km": "231\u00a0Einwohner je km2\n", "founded": {"txt": "1347 Aichach", "year": "1347"}}, {"name": "Aichtal", "url": "https://de.wikipedia.org/wiki/Aichtal", "name_url": "Aichtal", "lat_lng": {"lat": "48.622777777778", "lng": "9.2372222222222"}, "land": "Baden-W\u00fcrttemberg", "kreis": "Esslingen", "height": "311\u00a0m \u00fc.\u00a0NHN\n", "size": "23,64\u00a0km2\n", "inhabitants": "9901 (31.\u00a0Dez.\u00a02018)[1]\n", "inhabitants_km": "419\u00a0Einwohner je km2\n", "founded": {"txt": "1975 Aichtal", "year": "1975"}}, {"name": "Aken (Elbe)", "url": "https://de.wikipedia.org/wiki/Aken_(Elbe)", "name_url": "Aken_(Elbe)", "lat_lng": {"lat": "51.85", "lng": "12.05"}, "land": "Sachsen-Anhalt", "kreis": "Anhalt-Bitterfeld", "height": "60\u00a0m \u00fc.\u00a0NHN\n", "size": "59,91\u00a0km2\n", "inhabitants": "7567 (31.\u00a0Dez.\u00a02018)[1]\n", "inhabitants_km": "126\u00a0Einwohner je km2\n", "founded": {"txt": "1270 Aken (Elbe)", "year": "1270"}}, {"name": "Albstadt", "url": "https://de.wikipedia.org/wiki/Albstadt", "name_url": "Albstadt", "lat_lng": {"lat": "48.230555555556", "lng": "9.0319444444444"}, "land": "Baden-W\u00fcrttemberg", "kreis": "Zollernalbkreis", "height": "731\u00a0m \u00fc.\u00a0NHN\n", "size": "134,41\u00a0km2\n", "inhabitants": "45.327 (31.\u00a0Dez.\u00a02018)[1]\n", "inhabitants_km": "337\u00a0Einwohner je km2\n", "founded": {"txt": "1975 Albstadt", "year": "1975 "}}, {"name": "Alfeld (Leine)", "url": "https://de.wikipedia.org/wiki/Alfeld_(Leine)", "name_url": "Alfeld_(Leine)", "lat_lng": {"lat": "51.9863", "lng": "9.8247497222222"}, "land": "Niedersachsen", "kreis": "Hildesheim", "height": "119\u00a0m \u00fc.\u00a0NHN\n", "size": "72,87\u00a0km2\n", "inhabitants": "18.626 (31.\u00a0Dez.\u00a02018)[1]\n", "inhabitants_km": "256\u00a0Einwohner je km2\n", "founded": {"txt": "1258 Alfeld (Leine)", "year": "1258"}}, {"name": "Allendorf (Lumda)", "url": "https://de.wikipedia.org/wiki/Allendorf_(Lumda)", "name_url": "Allendorf_(Lumda)", "lat_lng": {"lat": "50.678888888889", "lng": "8.8244444444444"}, "land": "Hessen", "kreis": "Gie\u00dfen", "height": "230\u00a0m \u00fc.\u00a0NHN\n", "size": "22,01\u00a0km2\n", "inhabitants": "4090 (31.\u00a0Dez.\u00a02018)[1]\n", "inhabitants_km": "186\u00a0Einwohner je km2\n", "founded": {"txt": "1370 Allendorf (Lumda)", "year": "1370"}}, {"name": "Allstedt", "url": "https://de.wikipedia.org/wiki/Allstedt", "name_url": "Allstedt", "lat_lng": {"lat": "51.404166666667", "lng": "11.387222222222"}, "land": "Sachsen-Anhalt", "kreis": "Mansfeld-S\u00fcdharz", "height": "140\u00a0m \u00fc.\u00a0NHN\n", "size": "149,81\u00a0km2\n", "inhabitants": "7745 (31.\u00a0Dez.\u00a02018)[1]\n", "inhabitants_km": "52\u00a0Einwohner je km2\n", "founded": {"txt": "1425 Allstedt", "year": "1425"}}, {"name": "Alpirsbach", "url": "https://de.wikipedia.org/wiki/Alpirsbach", "name_url": "Alpirsbach", "lat_lng": {"lat": "48.345", "lng": "8.4027777777778"}, "land": "Baden-W\u00fcrttemberg", "kreis": "Freudenstadt", "height": "441\u00a0m \u00fc.\u00a0NHN\n", "size": "64,55\u00a0km2\n", "inhabitants": "6304 (31.\u00a0Dez.\u00a02018)[1]\n", "inhabitants_km": "98\u00a0Einwohner je km2\n", "founded": {"txt": "1869 Alpirsbach", "year": "1869"}}, {"name": "Alsdorf", "url": "https://de.wikipedia.org/wiki/Alsdorf", "name_url": "Alsdorf", "lat_lng": {"lat": "50.883333333333", "lng": "6.1666666666667"}, "land": "Nordrhein-Westfalen", "height": "163\u00a0m \u00fc.\u00a0NHN\n", "size": "31,68\u00a0km2\n", "inhabitants": "47.018 (31.\u00a0Dez.\u00a02018)[1]\n", "inhabitants_km": "1484\u00a0Einwohner je km2\n", "founded": {"txt": "1191 Alsdorf", "year": "1191"}}, {"name": "Alsfeld", "url": "https://de.wikipedia.org/wiki/Alsfeld", "name_url": "Alsfeld", "lat_lng": {"lat": "50.750555555556", "lng": "9.2669444444444"}, "land": "Hessen", "kreis": "Vogelsbergkreis", "height": "268\u00a0m \u00fc.\u00a0NHN\n", "size": "129,69\u00a0km2\n", "inhabitants": "15.989 (31.\u00a0Dez.\u00a02018)[1]\n", "inhabitants_km": "123\u00a0Einwohner je km2\n", "founded": {"txt": "1222 Alsfeld", "year": "1222"}}, {"name": "Alsleben (Saale)", "url": "https://de.wikipedia.org/wiki/Alsleben_(Saale)", "name_url": "Alsleben_(Saale)", "lat_lng": {"lat": "51.7", "lng": "11.666666666667"}, "land": "Sachsen-Anhalt", "kreis": "Salzlandkreis", "height": "85\u00a0m \u00fc.\u00a0NHN\n", "size": "23,64\u00a0km2\n", "inhabitants": "2526 (31.\u00a0Dez.\u00a02018)[1]\n", "inhabitants_km": "107\u00a0Einwohner je km2\n", "founded": {"txt": "1419 Alsleben (Saale)", "year": "1419"}}, {"name": "Altdorf bei N\u00fcrnberg", "url": "https://de.wikipedia.org/wiki/Altdorf_bei_N%C3%BCrnberg", "name_url": "Altdorf_bei_N%C3%BCrnberg", "lat_lng": {"lat": "49.3875", "lng": "11.356944444444"}, "land": "Bayern", "kreis": "N\u00fcrnberger Land", "height": "444\u00a0m \u00fc.\u00a0NHN\n", "size": "48,63\u00a0km2\n", "inhabitants": "15.245 (31.\u00a0Dez.\u00a02018)[1]\n", "inhabitants_km": "314\u00a0Einwohner je km2\n", "founded": {"txt": "1387 Altdorf bei N\u00fcrnberg", "year": "1387"}}, {"name": "Altena", "url": "https://de.wikipedia.org/wiki/Altena", "name_url": "Altena", "lat_lng": {"lat": "51.298055555556", "lng": "7.6708333333333"}, "land": "Nordrhein-Westfalen", "height": "190\u00a0m \u00fc.\u00a0NHN\n", "size": "44,42\u00a0km2\n", "inhabitants": "16.922 (31.\u00a0Dez.\u00a02018)[1]\n", "inhabitants_km": "381\u00a0Einwohner je km2\n", "founded": {"txt": "1794 Altena", "year": "1794"}}, {"name": "Altenberg (Erzgebirge)", "url": "https://de.wikipedia.org/wiki/Altenberg_(Erzgebirge)", "name_url": "Altenberg_(Erzgebirge)", "lat_lng": {"lat": "50.764444444444", "lng": "13.757777777778"}, "land": "Sachsen", "kreis": "S\u00e4chsische Schweiz-Osterzgebirge", "height": "750\u00a0m \u00fc.\u00a0NHN\n", "size": "145,89\u00a0km2\n", "inhabitants": "7937 (31.\u00a0Dez.\u00a02018)[1]\n", "inhabitants_km": "54\u00a0Einwohner je km2\n", "founded": {"txt": "1451 Altenberg", "year": "1451"}}, {"name": "Altenburg", "url": "https://de.wikipedia.org/wiki/Altenburg", "name_url": "Altenburg", "lat_lng": {"lat": "50.985", "lng": "12.433333333333"}, "land": "Th\u00fcringen", "kreis": "Altenburger Land", "height": "202\u00a0m \u00fc.\u00a0NHN\n", "size": "45,69\u00a0km2\n", "inhabitants": "32.074 (31.\u00a0Dez.\u00a02018)[1]\n", "inhabitants_km": "702\u00a0Einwohner je km2\n", "first_mentioned": {"txt": "976 Altenburg, erste urkundliche Erw\u00e4hnung", "year": "976"}, "founded": {"txt": "1256 Altenburg", "year": "1256"}}, {"name": "Altenkirchen (Westerwald)", "url": "https://de.wikipedia.org/wiki/Altenkirchen_(Westerwald)", "name_url": "Altenkirchen_(Westerwald)", "lat_lng": {"lat": "50.687222222222", "lng": "7.6455555555556"}, "land": "Rheinland-Pfalz", "kreis": "Altenkirchen (Westerwald)", "height": "230\u00a0m \u00fc.\u00a0NHN\n", "size": "10,98\u00a0km2\n", "inhabitants": "6263 (31.\u00a0Dez.\u00a02018)[1]\n", "inhabitants_km": "570\u00a0Einwohner je km2\n", "founded": {"txt": "1314 Altenkirchen (Westerwald)", "year": "1314"}}, {"name": "Altensteig", "url": "https://de.wikipedia.org/wiki/Altensteig", "name_url": "Altensteig", "lat_lng": {"lat": "48.586388888889", "lng": "8.6047222222222"}, "land": "Baden-W\u00fcrttemberg", "kreis": "Calw", "height": "504\u00a0m \u00fc.\u00a0NHN\n", "size": "53,22\u00a0km2\n", "inhabitants": "10.799 (31.\u00a0Dez.\u00a02018)[1]\n", "inhabitants_km": "203\u00a0Einwohner je km2\n", "founded": {"txt": "1085 Altensteig", "year": "1085"}}, {"name": "Altentreptow", "url": "https://de.wikipedia.org/wiki/Altentreptow", "name_url": "Altentreptow", "lat_lng": {"lat": "53.7", "lng": "13.25"}, "land": "Mecklenburg-Vorpommern", "kreis": "Mecklenburgische Seenplatte", "height": "13\u00a0m \u00fc.\u00a0NHN\n", "size": "52,82\u00a0km2\n", "inhabitants": "5307 (31.\u00a0Dez.\u00a02018)[1]\n", "inhabitants_km": "100\u00a0Einwohner je km2\n", "founded": {"txt": "1245 Altentreptow", "year": "1245"}}, {"name": "Altlandsberg", "url": "https://de.wikipedia.org/wiki/Altlandsberg", "name_url": "Altlandsberg", "lat_lng": {"lat": "52.565277777778", "lng": "13.726111111111"}, "land": "Brandenburg", "kreis": "M\u00e4rkisch-Oderland", "height": "57\u00a0m \u00fc.\u00a0NHN\n", "size": "106,6\u00a0km2\n", "inhabitants": "9490 (31.\u00a0Dez.\u00a02018)[1]\n", "inhabitants_km": "89\u00a0Einwohner je km2\n", "founded": {"txt": "1230 Altlandsberg", "year": "1230"}}, {"name": "Alt\u00f6tting", "url": "https://de.wikipedia.org/wiki/Alt%C3%B6tting", "name_url": "Alt%C3%B6tting", "lat_lng": {"lat": "48.226666666667", "lng": "12.678333333333"}, "land": "Bayern", "kreis": "Alt\u00f6tting", "height": "403\u00a0m \u00fc.\u00a0NHN\n", "size": "23,08\u00a0km2\n", "inhabitants": "12.969 (31.\u00a0Dez.\u00a02018)[1]\n", "inhabitants_km": "562\u00a0Einwohner je km2\n", "founded": {"txt": "1898 Alt\u00f6tting", "year": "1898"}}, {"name": "Alzenau", "url": "https://de.wikipedia.org/wiki/Alzenau", "name_url": "Alzenau", "lat_lng": {"lat": "50.086944444444", "lng": "9.0722222222222"}, "land": "Bayern", "kreis": "Aschaffenburg", "height": "126\u00a0m \u00fc.\u00a0NHN\n", "size": "59,32\u00a0km2\n", "inhabitants": "18.469 (31.\u00a0Dez.\u00a02018)[1]\n", "inhabitants_km": "311\u00a0Einwohner je km2\n", "founded": {"txt": "1951 Alzenau", "year": "1951"}}, {"name": "Alzey", "url": "https://de.wikipedia.org/wiki/Alzey", "name_url": "Alzey", "lat_lng": {"lat": "49.751666666667", "lng": "8.1161111111111"}, "land": "Rheinland-Pfalz", "kreis": "Alzey-Worms", "height": "194\u00a0m \u00fc.\u00a0NHN\n", "size": "35,21\u00a0km2\n", "inhabitants": "18.535 (31.\u00a0Dez.\u00a02018)[1]\n", "inhabitants_km": "526\u00a0Einwohner je km2\n", "first_mentioned": {"txt": "223 Alzey, erste Erw\u00e4hnung auf einem r\u00f6mischen Nymphenstein", "year": "223"}, "founded": {"txt": "1277 Alzey", "year": "1277"}}, {"name": "Amberg", "url": "https://de.wikipedia.org/wiki/Amberg", "name_url": "Amberg", "lat_lng": {"lat": "49.444444444444", "lng": "11.848333333333"}, "land": "Bayern", "height": "373\u00a0m \u00fc.\u00a0NHN\n", "size": "50,14\u00a0km2\n", "inhabitants": "41.970 (31.\u00a0Dez.\u00a02018)[1]\n", "inhabitants_km": "837\u00a0Einwohner je km2\n", "founded": {"txt": "1294 Amberg", "year": "1294"}}, {"name": "Am\u00f6neburg", "url": "https://de.wikipedia.org/wiki/Am%C3%B6neburg", "name_url": "Am%C3%B6neburg", "lat_lng": {"lat": "50.797777777778", "lng": "8.9230555555556"}, "land": "Hessen", "kreis": "Marburg-Biedenkopf", "height": "365\u00a0m \u00fc.\u00a0NHN\n", "size": "43,95\u00a0km2\n", "inhabitants": "5096 (31.\u00a0Dez.\u00a02018)[1]\n", "inhabitants_km": "116\u00a0Einwohner je km2\n", "founded": {"txt": "721 Am\u00f6neburg, Gr\u00fcndung eines Klosters durch Bonifatius", "year": "721"}}, {"name": "Amorbach", "url": "https://de.wikipedia.org/wiki/Amorbach", "name_url": "Amorbach", "lat_lng": {"lat": "49.6432607", "lng": "9.2189897"}, "land": "Bayern", "kreis": "Miltenberg", "height": "165\u00a0m \u00fc.\u00a0NHN\n", "size": "50,92\u00a0km2\n", "inhabitants": "3990 (31.\u00a0Dez.\u00a02018)[1]\n", "inhabitants_km": "78\u00a0Einwohner je km2\n", "founded": {"txt": "1253 Amorbach", "year": "1253"}}, {"name": "Amt Creuzburg", "url": "https://de.wikipedia.org/wiki/Amt_Creuzburg", "name_url": "Amt_Creuzburg", "lat_lng": {"lat": "51.051388888889", "lng": "10.244722222222"}, "land": "Th\u00fcringen", "kreis": "Wartburgkreis", "height": "200\u00a0m \u00fc.\u00a0NHN\n", "size": "69,73\u00a0km2\n", "inhabitants": "4732 (31.\u00a0Dez.\u00a02018)[1]\n", "inhabitants_km": "68\u00a0Einwohner je km2\n"}, {"name": "An der Schm\u00fccke", "url": "https://de.wikipedia.org/wiki/An_der_Schm%C3%BCcke", "name_url": "An_der_Schm%C3%BCcke", "lat_lng": {"lat": "51.301388888889", "lng": "11.216666666667"}, "land": "Th\u00fcringen", "kreis": "Kyffh\u00e4userkreis", "height": "180\u00a0m \u00fc.\u00a0NHN\n", "size": "95,29\u00a0km2\n", "inhabitants": "6030 (31.\u00a0Dez.\u00a02018)[1]\n", "inhabitants_km": "63\u00a0Einwohner je km2\n"}, {"name": "Andernach", "url": "https://de.wikipedia.org/wiki/Andernach", "name_url": "Andernach", "lat_lng": {"lat": "50.439722222222", "lng": "7.4016666666667"}, "land": "Rheinland-Pfalz", "kreis": "Mayen-Koblenz", "height": "60\u00a0m \u00fc.\u00a0NHN\n", "size": "53,24\u00a0km2\n", "inhabitants": "29.966 (31.\u00a0Dez.\u00a02018)[1]\n", "inhabitants_km": "563\u00a0Einwohner je km2\n", "founded": {"txt": "12 v. Chr. Andernach, r\u00f6mische Gr\u00fcndung (lat. Antunnacum)", "year": "12 v. Chr. "}}, {"name": "Angerm\u00fcnde", "url": "https://de.wikipedia.org/wiki/Angerm%C3%BCnde", "name_url": "Angerm%C3%BCnde", "lat_lng": {"lat": "53.018055555556", "lng": "14.004444444444"}, "land": "Brandenburg", "kreis": "Uckermark", "height": "51\u00a0m \u00fc.\u00a0NHN\n", "size": "324,19\u00a0km2\n", "inhabitants": "13.744 (31.\u00a0Dez.\u00a02018)[1]\n", "inhabitants_km": "42\u00a0Einwohner je km2\n", "first_mentioned": {"txt": "1284 Angerm\u00fcnde, erste urkundliche Erw\u00e4hnung", "year": "1284"}}, {"name": "Anklam", "url": "https://de.wikipedia.org/wiki/Anklam", "name_url": "Anklam", "lat_lng": {"lat": "53.855555555556", "lng": "13.688611111111"}, "land": "Mecklenburg-Vorpommern", "kreis": "Vorpommern-Greifswald", "height": "6\u00a0m \u00fc.\u00a0NHN\n", "size": "56,58\u00a0km2\n", "inhabitants": "12.385 (31.\u00a0Dez.\u00a02018)[1]\n", "inhabitants_km": "219\u00a0Einwohner je km2\n", "first_mentioned": {"txt": "1243 Anklam, erste urkundliche Erw\u00e4hnung als Tachlim, 1244 Verleihung L\u00fcbisches Recht durch Pommernherzog Barnim I.", "year": "1243 "}, "founded": {"txt": "1264 Anklam", "year": "1264"}}, {"name": "Annaberg-Buchholz", "url": "https://de.wikipedia.org/wiki/Annaberg-Buchholz", "name_url": "Annaberg-Buchholz", "lat_lng": {"lat": "50.58", "lng": "13.002222222222"}, "land": "Sachsen", "kreis": "Erzgebirgskreis", "height": "600\u00a0m \u00fc.\u00a0NHN\n", "size": "28,15\u00a0km2\n", "inhabitants": "19.769 (31.\u00a0Dez.\u00a02018)[1]\n", "inhabitants_km": "702\u00a0Einwohner je km2\n", "founded": {"txt": "1496 Annaberg-Buchholz, geplante Stadtgr\u00fcndung", "year": "1496"}}, {"name": "Annaburg", "url": "https://de.wikipedia.org/wiki/Annaburg", "name_url": "Annaburg", "lat_lng": {"lat": "51.732777777778", "lng": "13.045555555556"}, "land": "Sachsen-Anhalt", "kreis": "Wittenberg", "height": "75\u00a0m \u00fc.\u00a0NHN\n", "size": "224,27\u00a0km2\n", "inhabitants": "6731 (31.\u00a0Dez.\u00a02018)[1]\n", "inhabitants_km": "30\u00a0Einwohner je km2\n"}, {"name": "Annweiler am Trifels", "url": "https://de.wikipedia.org/wiki/Annweiler_am_Trifels", "name_url": "Annweiler_am_Trifels", "lat_lng": {"lat": "49.203333333333", "lng": "7.9666666666667"}, "land": "Rheinland-Pfalz", "kreis": "S\u00fcdliche Weinstra\u00dfe", "height": "179\u00a0m \u00fc.\u00a0NHN\n", "size": "39,88\u00a0km2\n", "inhabitants": "7081 (31.\u00a0Dez.\u00a02018)[1]\n", "inhabitants_km": "178\u00a0Einwohner je km2\n", "founded": {"txt": "1219 Annweiler am Trifels", "year": "1219"}}, {"name": "Ansbach", "url": "https://de.wikipedia.org/wiki/Ansbach", "name_url": "Ansbach", "lat_lng": {"lat": "49.300833333333", "lng": "10.571666666667"}, "land": "Bayern", "height": "405\u00a0m \u00fc.\u00a0NHN\n", "size": "99,91\u00a0km2\n", "inhabitants": "41.847 (31.\u00a0Dez.\u00a02018)[1]\n", "inhabitants_km": "419\u00a0Einwohner je km2\n", "founded": {"txt": "1221 Ansbach", "year": "1221"}}, {"name": "Apolda", "url": "https://de.wikipedia.org/wiki/Apolda", "name_url": "Apolda", "lat_lng": {"lat": "51.022777777778", "lng": "11.512777777778"}, "land": "Th\u00fcringen", "kreis": "Weimarer Land", "height": "205\u00a0m \u00fc.\u00a0NHN\n", "size": "46,27\u00a0km2\n", "inhabitants": "22.012 (31.\u00a0Dez.\u00a02018)[1]\n", "inhabitants_km": "476\u00a0Einwohner je km2\n", "first_mentioned": {"txt": "1119 Apolda, erste urkundliche Erw\u00e4hnung", "year": "1119"}, "founded": {"txt": "1289 Apolda", "year": "1289"}}, {"name": "Arendsee (Altmark)", "url": "https://de.wikipedia.org/wiki/Arendsee_(Altmark)", "name_url": "Arendsee_(Altmark)", "lat_lng": {"lat": "52.8767", "lng": "11.4867"}, "land": "Sachsen-Anhalt", "kreis": "Altmarkkreis Salzwedel", "height": "25\u00a0m \u00fc.\u00a0NHN\n", "size": "269,68\u00a0km2\n", "inhabitants": "6750 (31.\u00a0Dez.\u00a02018)[1]\n", "inhabitants_km": "25\u00a0Einwohner je km2\n", "founded": {"txt": "1148 Arendsee (Altmark)", "year": "1148"}}, {"name": "Arneburg", "url": "https://de.wikipedia.org/wiki/Arneburg", "name_url": "Arneburg", "lat_lng": {"lat": "52.674166666667", "lng": "11.998333333333"}, "land": "Sachsen-Anhalt", "kreis": "Stendal", "height": "55\u00a0m \u00fc.\u00a0NHN\n", "size": "30,64\u00a0km2\n", "inhabitants": "1500 (31.\u00a0Dez.\u00a02018)[1]\n", "inhabitants_km": "49\u00a0Einwohner je km2\n", "founded": {"txt": "984 Arneburg", "year": "984"}}, {"name": "Arnis", "url": "https://de.wikipedia.org/wiki/Arnis", "name_url": "Arnis", "lat_lng": {"lat": "54.63", "lng": "9.9313888888889"}, "land": "Schleswig-Holstein", "height": "2\u00a0m \u00fc.\u00a0NHN\n", "size": "0,45\u00a0km2\n", "inhabitants": "284 (31.\u00a0Dez.\u00a02018)[1]\n", "inhabitants_km": "631\u00a0Einwohner je km2\n", "founded": {"txt": "1934 Arnis", "year": "1934"}}, {"name": "Arnsberg", "url": "https://de.wikipedia.org/wiki/Arnsberg", "name_url": "Arnsberg", "lat_lng": {"lat": "51.396666666667", "lng": "8.0646666666667"}, "land": "Nordrhein-Westfalen", "height": "200\u00a0m \u00fc.\u00a0NHN\n", "size": "193,72\u00a0km2\n", "inhabitants": "73.628 (31.\u00a0Dez.\u00a02018)[1]\n", "inhabitants_km": "380\u00a0Einwohner je km2\n", "founded": {"txt": "1238 Arnsberg", "year": "1238 "}}, {"name": "Arnstadt", "url": "https://de.wikipedia.org/wiki/Arnstadt", "name_url": "Arnstadt", "lat_lng": {"lat": "50.834166666667", "lng": "10.946388888889"}, "land": "Th\u00fcringen", "kreis": "Ilm-Kreis", "height": "288\u00a0m \u00fc.\u00a0NHN\n", "size": "104,99\u00a0km2\n", "inhabitants": "27.304 (31.\u00a0Dez.\u00a02018)[1]\n", "inhabitants_km": "260\u00a0Einwohner je km2\n", "founded": {"txt": "1266 Arnstadt Verleihung des Stadtrechts durch Abt Heinrich III. von Boyneburg der Abtei Hersfeld", "year": "1266"}}, {"name": "Arnstein (Unterfranken)", "url": "https://de.wikipedia.org/wiki/Arnstein_(Unterfranken)", "name_url": "Arnstein_(Unterfranken)", "lat_lng": {"lat": "49.966666666667", "lng": "9.9833333333333"}, "land": "Bayern", "kreis": "Main-Spessart", "height": "228\u00a0m \u00fc.\u00a0NHN\n", "size": "112,11\u00a0km2\n", "inhabitants": "8125 (31.\u00a0Dez.\u00a02018)[1]\n", "inhabitants_km": "72\u00a0Einwohner je km2\n"}, {"name": "Arnstein (Sachsen-Anhalt)", "url": "https://de.wikipedia.org/wiki/Arnstein_(Sachsen-Anhalt)", "name_url": "Arnstein_(Sachsen-Anhalt)", "lat_lng": {"lat": "51.683333333333", "lng": "11.466666666667"}, "land": "Sachsen-Anhalt", "kreis": "Mansfeld-S\u00fcdharz", "size": "121,69\u00a0km2\n", "inhabitants": "6616 (31.\u00a0Dez.\u00a02018)[1]\n", "inhabitants_km": "54\u00a0Einwohner je km2\n"}, {"name": "Artern", "url": "https://de.wikipedia.org/wiki/Artern", "name_url": "Artern", "lat_lng": {"lat": "51.364722222222", "lng": "11.290555555556"}, "land": "Th\u00fcringen", "kreis": "Kyffh\u00e4userkreis", "height": "121\u00a0m \u00fc.\u00a0NHN\n", "size": "45,05\u00a0km2\n", "inhabitants": "6799 (31.\u00a0Dez.\u00a02018)[1]\n", "inhabitants_km": "151\u00a0Einwohner je km2\n"}, {"name": "Arzberg (Oberfranken)", "url": "https://de.wikipedia.org/wiki/Arzberg_(Oberfranken)", "name_url": "Arzberg_(Oberfranken)", "lat_lng": {"lat": "50.057222222222", "lng": "12.186388888889"}, "land": "Bayern", "kreis": "Wunsiedel im Fichtelgebirge", "height": "481\u00a0m \u00fc.\u00a0NHN\n", "size": "43,2\u00a0km2\n", "inhabitants": "5152 (31.\u00a0Dez.\u00a02018)[1]\n", "inhabitants_km": "119\u00a0Einwohner je km2\n", "founded": {"txt": "1408 Arzberg", "year": "1408"}}, {"name": "Aschaffenburg", "url": "https://de.wikipedia.org/wiki/Aschaffenburg", "name_url": "Aschaffenburg", "lat_lng": {"lat": "49.976702777778", "lng": "9.1477472222222"}, "land": "Bayern", "height": "138\u00a0m \u00fc.\u00a0NHN\n", "size": "62,47\u00a0km2\n", "inhabitants": "70.527 (31.\u00a0Dez.\u00a02018)[1]\n", "inhabitants_km": "1129\u00a0Einwohner je km2\n", "founded": {"txt": "1161 Aschaffenburg", "year": "1161"}}, {"name": "Aschersleben", "url": "https://de.wikipedia.org/wiki/Aschersleben", "name_url": "Aschersleben", "lat_lng": {"lat": "51.755555555556", "lng": "11.455555555556"}, "land": "Sachsen-Anhalt", "kreis": "Salzlandkreis", "height": "114\u00a0m \u00fc.\u00a0NHN\n", "size": "156,23\u00a0km2\n", "inhabitants": "27.220 (31.\u00a0Dez.\u00a02018)[1]\n", "inhabitants_km": "174\u00a0Einwohner je km2\n", "first_mentioned": {"txt": "753 Aschersleben, erste urkundliche Erw\u00e4hnung", "year": "753"}, "founded": {"txt": "1266 Aschersleben", "year": "1266"}}, {"name": "Asperg", "url": "https://de.wikipedia.org/wiki/Asperg", "name_url": "Asperg", "lat_lng": {"lat": "48.906388888889", "lng": "9.1413888888889"}, "land": "Baden-W\u00fcrttemberg", "kreis": "Ludwigsburg", "height": "270\u00a0m \u00fc.\u00a0NHN\n", "size": "5,8\u00a0km2\n", "inhabitants": "13.480 (31.\u00a0Dez.\u00a02018)[1]\n", "inhabitants_km": "2324\u00a0Einwohner je km2\n", "first_mentioned": {"txt": "819 Asperg, erste urkundliche Erw\u00e4hnung als Gaugraf Gozberg seinen dortigen Besitz dem Kloster Wei\u00dfenburg im Elsass schenkt", "year": "819 "}}, {"name": "A\u00dflar", "url": "https://de.wikipedia.org/wiki/A%C3%9Flar", "name_url": "A%C3%9Flar", "lat_lng": {"lat": "50.583333333333", "lng": "8.4666666666667"}, "land": "Hessen", "kreis": "Lahn-Dill-Kreis", "height": "171\u00a0m \u00fc.\u00a0NHN\n", "size": "43,57\u00a0km2\n", "inhabitants": "13.656 (31.\u00a0Dez.\u00a02018)[1]\n", "inhabitants_km": "313\u00a0Einwohner je km2\n", "founded": {"txt": "1978 A\u00dflar", "year": "1978"}}, {"name": "Attendorn", "url": "https://de.wikipedia.org/wiki/Attendorn", "name_url": "Attendorn", "lat_lng": {"lat": "51.116666666667", "lng": "7.9"}, "land": "Nordrhein-Westfalen", "height": "257\u00a0m \u00fc.\u00a0NHN\n", "size": "97,95\u00a0km2\n", "inhabitants": "24.367 (31.\u00a0Dez.\u00a02018)[1]\n", "inhabitants_km": "249\u00a0Einwohner je km2\n", "first_mentioned": {"txt": "1072 Attendorn, erste urkundliche Erw\u00e4hnung", "year": "1072"}, "founded": {"txt": "1222 Attendorn erh\u00e4lt Soester Stadtrecht", "year": "1222 "}}, {"name": "Aub", "url": "https://de.wikipedia.org/wiki/Aub", "name_url": "Aub", "lat_lng": {"lat": "49.552777777778", "lng": "10.065277777778"}, "land": "Bayern", "kreis": "W\u00fcrzburg", "height": "310\u00a0m \u00fc.\u00a0NHN\n", "size": "17,54\u00a0km2\n", "inhabitants": "1466 (31.\u00a0Dez.\u00a02018)[1]\n"}, {"name": "Aue-Bad Schlema", "url": "https://de.wikipedia.org/wiki/Aue-Bad_Schlema", "name_url": "Aue-Bad_Schlema", "lat_lng": {"lat": "50.597222222222", "lng": "12.683333333333"}, "land": "Sachsen", "kreis": "Erzgebirgskreis", "height": "360\u00a0m \u00fc.\u00a0NHN\n", "size": "36,43\u00a0km2\n", "inhabitants": "20.519 (31.\u00a0Dez.\u00a02018)[1]\n", "inhabitants_km": "563\u00a0Einwohner je km2\n"}, {"name": "Auerbach in der Oberpfalz", "url": "https://de.wikipedia.org/wiki/Auerbach_in_der_Oberpfalz", "name_url": "Auerbach_in_der_Oberpfalz", "lat_lng": {"lat": "49.693888888889", "lng": "11.632777777778"}, "land": "Bayern", "kreis": "Amberg-Sulzbach", "height": "435\u00a0m \u00fc.\u00a0NHN\n", "size": "78,26\u00a0km2\n", "inhabitants": "8818 (31.\u00a0Dez.\u00a02018)[1]\n", "inhabitants_km": "113\u00a0Einwohner je km2\n", "founded": {"txt": "1314 Auerbach in der Oberpfalz", "year": "1314 "}}, {"name": "Auerbach/Vogtl.", "url": "https://de.wikipedia.org/wiki/Auerbach/Vogtl.", "name_url": "Auerbach/Vogtl.", "lat_lng": {"lat": "50.509444444444", "lng": "12.4"}, "land": "Sachsen", "kreis": "Vogtlandkreis", "height": "555\u00a0m \u00fc.\u00a0NHN\n", "size": "55,52\u00a0km2\n", "inhabitants": "18.357 (31.\u00a0Dez.\u00a02018)[1]\n", "inhabitants_km": "331\u00a0Einwohner je km2\n", "first_mentioned": {"txt": "1282 Auerbach/Vogtl., erste urkundliche Erw\u00e4hnung", "year": "1282"}}, {"name": "Augsburg", "url": "https://de.wikipedia.org/wiki/Augsburg", "name_url": "Augsburg", "lat_lng": {"lat": "48.371666666667", "lng": "10.898333333333"}, "land": "Bayern", "height": "494\u00a0m \u00fc.\u00a0NHN\n", "size": "146,84\u00a0km2\n", "inhabitants": "295.135 (31.\u00a0Dez.\u00a02018)[1]\n", "inhabitants_km": "2010\u00a0Einwohner je km2\n", "founded": {"txt": "15 v. Chr. Augsburg, Gr\u00fcndung als r\u00f6misches Legionslager (lat. Augusta Vindelicorum)", "year": "15 v. Chr."}}, {"name": "Augustusburg", "url": "https://de.wikipedia.org/wiki/Augustusburg", "name_url": "Augustusburg", "lat_lng": {"lat": "50.814444444444", "lng": "13.1"}, "land": "Sachsen", "kreis": "Mittelsachsen", "height": "516\u00a0m \u00fc.\u00a0NHN\n", "size": "23,38\u00a0km2\n", "inhabitants": "4513 (31.\u00a0Dez.\u00a02018)[1]\n", "inhabitants_km": "193\u00a0Einwohner je km2\n", "first_mentioned": {"txt": "1206 Augustusburg, erste urkundliche Erw\u00e4hnung", "year": "1206"}}, {"name": "Aulendorf", "url": "https://de.wikipedia.org/wiki/Aulendorf", "name_url": "Aulendorf", "lat_lng": {"lat": "47.954166666667", "lng": "9.6388888888889"}, "land": "Baden-W\u00fcrttemberg", "kreis": "Ravensburg", "height": "576\u00a0m \u00fc.\u00a0NHN\n", "size": "52,34\u00a0km2\n", "inhabitants": "10.180 (31.\u00a0Dez.\u00a02018)[1]\n", "inhabitants_km": "194\u00a0Einwohner je km2\n", "founded": {"txt": "1950 Aulendorf", "year": "1950"}}, {"name": "Auma-Weidatal", "url": "https://de.wikipedia.org/wiki/Auma-Weidatal", "name_url": "Auma-Weidatal", "lat_lng": {"lat": "50.7", "lng": "11.9"}, "land": "Th\u00fcringen", "kreis": "Greiz", "height": "394\u00a0m \u00fc.\u00a0NHN\n", "size": "55,91\u00a0km2\n", "inhabitants": "3491 (31.\u00a0Dez.\u00a02018)[1]\n", "inhabitants_km": "62\u00a0Einwohner je km2\n", "founded": {"txt": "2011 Auma-Weidatal (Landkreis Greiz), \u00fcbernimmt das Stadtrecht der Stadt Auma", "year": "2011 "}}, {"name": "Aurich", "url": "https://de.wikipedia.org/wiki/Aurich", "name_url": "Aurich", "lat_lng": {"lat": "53.471388888889", "lng": "7.4836111111111"}, "land": "Niedersachsen", "kreis": "Aurich", "height": "4\u00a0m \u00fc.\u00a0NHN\n", "size": "197,22\u00a0km2\n", "inhabitants": "41.991 (31.\u00a0Dez.\u00a02018)[1]\n", "inhabitants_km": "213\u00a0Einwohner je km2\n", "founded": {"txt": "1276 Aurich", "year": "1276"}}, {"name": "Babenhausen (Hessen)", "url": "https://de.wikipedia.org/wiki/Babenhausen_(Hessen)", "name_url": "Babenhausen_(Hessen)", "lat_lng": {"lat": "49.962361111111", "lng": "8.9532638888889"}, "inhabitants": "\n", "inhabitants_km": "\n", "land": "Hessen", "kreis": "Darmstadt-Dieburg", "height": "124\u00a0m \u00fc.\u00a0NHN\n", "size": "66,87\u00a0km2\n"}, {"name": "Bacharach", "url": "https://de.wikipedia.org/wiki/Bacharach", "name_url": "Bacharach", "lat_lng": {"lat": "50.061111111111", "lng": "7.7694444444444"}, "land": "Rheinland-Pfalz", "kreis": "Mainz-Bingen", "height": "70\u00a0m \u00fc.\u00a0NHN\n", "size": "23,33\u00a0km2\n", "inhabitants": "1868 (31.\u00a0Dez.\u00a02018)[1]\n", "inhabitants_km": "80\u00a0Einwohner je km2\n"}, {"name": "Backnang", "url": "https://de.wikipedia.org/wiki/Backnang", "name_url": "Backnang", "lat_lng": {"lat": "48.946388888889", "lng": "9.4305555555556"}, "land": "Baden-W\u00fcrttemberg", "kreis": "Rems-Murr-Kreis", "height": "271\u00a0m \u00fc.\u00a0NHN\n", "size": "39,4\u00a0km2\n", "inhabitants": "37.253 (31.\u00a0Dez.\u00a02018)[1]\n", "inhabitants_km": "946\u00a0Einwohner je km2\n", "first_mentioned": {"txt": "1067 Backnang, erste urkundliche Erw\u00e4hnung", "year": "1067"}, "founded": {"txt": "im 13. Jahrhundert Backnang", "year": "im 13. Jahrhundert "}}, {"name": "Bad Aibling", "url": "https://de.wikipedia.org/wiki/Bad_Aibling", "name_url": "Bad_Aibling", "lat_lng": {"lat": "47.866666666667", "lng": "12.016666666667"}, "land": "Bayern", "kreis": "Rosenheim", "height": "492\u00a0m \u00fc.\u00a0NHN\n", "size": "41,39\u00a0km2\n", "inhabitants": "19.100 (31.\u00a0Dez.\u00a02018)[1]\n", "inhabitants_km": "461\u00a0Einwohner je km2\n", "founded": {"txt": "1933 Bad Aibling", "year": "1933"}}, {"name": "Bad Arolsen", "url": "https://de.wikipedia.org/wiki/Bad_Arolsen", "name_url": "Bad_Arolsen", "lat_lng": {"lat": "51.377777777778", "lng": "9.0166666666667"}, "land": "Hessen", "kreis": "Waldeck-Frankenberg", "height": "290\u00a0m \u00fc.\u00a0NHN\n", "size": "126,38\u00a0km2\n", "inhabitants": "15.470 (31.\u00a0Dez.\u00a02018)[1]\n", "inhabitants_km": "122\u00a0Einwohner je km2\n"}, {"name": "Bad Belzig", "url": "https://de.wikipedia.org/wiki/Bad_Belzig", "name_url": "Bad_Belzig", "lat_lng": {"lat": "52.142222222222", "lng": "12.595555555556"}, "land": "Brandenburg", "kreis": "Potsdam-Mittelmark", "height": "88\u00a0m \u00fc.\u00a0NHN\n", "size": "236,07\u00a0km2\n", "inhabitants": "11.144 (31.\u00a0Dez.\u00a02018)[1]\n", "inhabitants_km": "47\u00a0Einwohner je km2\n", "founded": {"txt": "1702 Bad Belzig", "year": "1702"}}, {"name": "Bad Bentheim", "url": "https://de.wikipedia.org/wiki/Bad_Bentheim", "name_url": "Bad_Bentheim", "lat_lng": {"lat": "52.303055555556", "lng": "7.1597222222222"}, "land": "Niedersachsen", "kreis": "Grafschaft Bentheim", "height": "49\u00a0m \u00fc.\u00a0NHN\n", "size": "100\u00a0km2\n", "inhabitants": "15.486 (31.\u00a0Dez.\u00a02018)[1]\n", "inhabitants_km": "155\u00a0Einwohner je km2\n", "founded": {"txt": "1865 Bentheim", "year": "1865"}}, {"name": "Bad Bergzabern", "url": "https://de.wikipedia.org/wiki/Bad_Bergzabern", "name_url": "Bad_Bergzabern", "lat_lng": {"lat": "49.103055555556", "lng": "7.9988888888889"}, "land": "Rheinland-Pfalz", "kreis": "S\u00fcdliche Weinstra\u00dfe", "height": "170\u00a0m \u00fc.\u00a0NHN\n", "size": "10,71\u00a0km2\n", "inhabitants": "8124 (31.\u00a0Dez.\u00a02018)[1]\n", "inhabitants_km": "759\u00a0Einwohner je km2\n"}, {"name": "Bad Berka", "url": "https://de.wikipedia.org/wiki/Bad_Berka", "name_url": "Bad_Berka", "lat_lng": {"lat": "50.9", "lng": "11.280833333333"}, "land": "Th\u00fcringen", "kreis": "Weimarer Land", "height": "275\u00a0m \u00fc.\u00a0NHN\n", "size": "55,32\u00a0km2\n", "inhabitants": "7503 (31.\u00a0Dez.\u00a02018)[1]\n", "inhabitants_km": "136\u00a0Einwohner je km2\n", "first_mentioned": {"txt": "1119 Bad Berka, erste urkundliche Erw\u00e4hnung", "year": "1119 "}, "founded": {"txt": "1414 Bad Berka", "year": "1414"}}, {"name": "Bad Berleburg", "url": "https://de.wikipedia.org/wiki/Bad_Berleburg", "name_url": "Bad_Berleburg", "lat_lng": {"lat": "51.04766", "lng": "8.39252"}, "land": "Nordrhein-Westfalen", "height": "420\u00a0m \u00fc.\u00a0NHN\n", "size": "275,52\u00a0km2\n", "inhabitants": "19.446 (31.\u00a0Dez.\u00a02018)[1]\n", "inhabitants_km": "71\u00a0Einwohner je km2\n", "first_mentioned": {"txt": "1258 Bad Berleburg, erste urkundliche Erw\u00e4hnung als Berneborg", "year": "1258"}}, {"name": "Bad Berneck im Fichtelgebirge", "url": "https://de.wikipedia.org/wiki/Bad_Berneck_im_Fichtelgebirge", "name_url": "Bad_Berneck_im_Fichtelgebirge", "lat_lng": {"lat": "50.047777777778", "lng": "11.672222222222"}, "land": "Bayern", "kreis": "Bayreuth", "height": "393\u00a0m \u00fc.\u00a0NHN\n", "size": "38,26\u00a0km2\n", "inhabitants": "4371 (31.\u00a0Dez.\u00a02018)[1]\n", "inhabitants_km": "114\u00a0Einwohner je km2\n"}, {"name": "Bad Bevensen", "url": "https://de.wikipedia.org/wiki/Bad_Bevensen", "name_url": "Bad_Bevensen", "lat_lng": {"lat": "53.079166666667", "lng": "10.583333333333"}, "land": "Niedersachsen", "kreis": "Uelzen", "height": "36\u00a0m \u00fc.\u00a0NHN\n", "size": "48,05\u00a0km2\n", "inhabitants": "9122 (31.\u00a0Dez.\u00a02018)[1]\n", "inhabitants_km": "190\u00a0Einwohner je km2\n", "founded": {"txt": "1929 Bad Bevensen", "year": "1929"}}, {"name": "Bad Bibra", "url": "https://de.wikipedia.org/wiki/Bad_Bibra", "name_url": "Bad_Bibra", "lat_lng": {"lat": "51.208055555556", "lng": "11.585277777778"}, "land": "Sachsen-Anhalt", "kreis": "Burgenlandkreis", "height": "152\u00a0m \u00fc.\u00a0NHN\n", "size": "49,77\u00a0km2\n", "inhabitants": "2718 (31.\u00a0Dez.\u00a02018)[1]\n", "inhabitants_km": "55\u00a0Einwohner je km2\n"}, {"name": "Bad Blankenburg", "url": "https://de.wikipedia.org/wiki/Bad_Blankenburg", "name_url": "Bad_Blankenburg", "lat_lng": {"lat": "50.684444444444", "lng": "11.263611111111"}, "land": "Th\u00fcringen", "kreis": "Saalfeld-Rudolstadt", "height": "220\u00a0m \u00fc.\u00a0NHN\n", "size": "35,62\u00a0km2\n", "inhabitants": "6407 (31.\u00a0Dez.\u00a02018)[1]\n", "inhabitants_km": "180\u00a0Einwohner je km2\n", "first_mentioned": {"txt": "1267 Bad Blankenburg, erste urkundliche Erw\u00e4hnung", "year": "1267 "}, "founded": {"txt": "1323 Bad Blankenburg", "year": "1323 "}}, {"name": "Bad Bramstedt", "url": "https://de.wikipedia.org/wiki/Bad_Bramstedt", "name_url": "Bad_Bramstedt", "lat_lng": {"lat": "53.918611111111", "lng": "9.8844444444444"}, "land": "Schleswig-Holstein", "height": "9\u00a0m \u00fc.\u00a0NHN\n", "size": "24,14\u00a0km2\n", "inhabitants": "14.420 (31.\u00a0Dez.\u00a02018)[1]\n", "inhabitants_km": "597\u00a0Einwohner je km2\n"}, {"name": "Bad Breisig", "url": "https://de.wikipedia.org/wiki/Bad_Breisig", "name_url": "Bad_Breisig", "lat_lng": {"lat": "50.509166666667", "lng": "7.2963888888889"}, "land": "Rheinland-Pfalz", "kreis": "Ahrweiler", "height": "70\u00a0m \u00fc.\u00a0NHN\n", "size": "19,94\u00a0km2\n", "inhabitants": "9460 (31.\u00a0Dez.\u00a02018)[1]\n", "inhabitants_km": "474\u00a0Einwohner je km2\n", "founded": {"txt": "1970 Bad Breisig", "year": "1970"}}, {"name": "Bad Br\u00fcckenau", "url": "https://de.wikipedia.org/wiki/Bad_Br%C3%BCckenau", "name_url": "Bad_Br%C3%BCckenau", "lat_lng": {"lat": "50.309444444444", "lng": "9.7905555555556"}, "land": "Bayern", "kreis": "Bad Kissingen", "height": "332\u00a0m \u00fc.\u00a0NHN\n", "size": "23,73\u00a0km2\n", "inhabitants": "6449 (31.\u00a0Dez.\u00a02018)[1]\n", "inhabitants_km": "272\u00a0Einwohner je km2\n"}, {"name": "Bad Buchau", "url": "https://de.wikipedia.org/wiki/Bad_Buchau", "name_url": "Bad_Buchau", "lat_lng": {"lat": "48.0662", "lng": "9.61"}, "land": "Baden-W\u00fcrttemberg", "kreis": "Biberach", "height": "592\u00a0m \u00fc.\u00a0NHN\n", "size": "23,77\u00a0km2\n", "inhabitants": "4294 (31.\u00a0Dez.\u00a02018)[1]\n", "inhabitants_km": "181\u00a0Einwohner je km2\n"}, {"name": "Bad Camberg", "url": "https://de.wikipedia.org/wiki/Bad_Camberg", "name_url": "Bad_Camberg", "lat_lng": {"lat": "50.3", "lng": "8.2666666666667"}, "land": "Hessen", "kreis": "Limburg-Weilburg", "height": "197\u00a0m \u00fc.\u00a0NHN\n", "size": "54,63\u00a0km2\n", "inhabitants": "14.263 (31.\u00a0Dez.\u00a02018)[1]\n", "inhabitants_km": "261\u00a0Einwohner je km2\n", "founded": {"txt": "1281 Bad Camberg", "year": "1281"}}, {"name": "Bad Doberan", "url": "https://de.wikipedia.org/wiki/Bad_Doberan", "name_url": "Bad_Doberan", "lat_lng": {"lat": "54.106944444444", "lng": "11.905277777778"}, "land": "Mecklenburg-Vorpommern", "kreis": "Rostock", "height": "12\u00a0m \u00fc.\u00a0NHN\n", "size": "32,76\u00a0km2\n", "inhabitants": "12.491 (31.\u00a0Dez.\u00a02018)[1]\n", "inhabitants_km": "381\u00a0Einwohner je km2\n", "founded": {"txt": "1879 Bad Doberan", "year": "1879"}}, {"name": "Bad Driburg", "url": "https://de.wikipedia.org/wiki/Bad_Driburg", "name_url": "Bad_Driburg", "lat_lng": {"lat": "51.733333333333", "lng": "9.0166666666667"}, "land": "Nordrhein-Westfalen", "height": "220\u00a0m \u00fc.\u00a0NHN\n", "size": "115,3\u00a0km2\n", "inhabitants": "19.002 (31.\u00a0Dez.\u00a02018)[1]\n", "inhabitants_km": "165\u00a0Einwohner je km2\n"}, {"name": "Bad D\u00fcben", "url": "https://de.wikipedia.org/wiki/Bad_D%C3%BCben", "name_url": "Bad_D%C3%BCben", "lat_lng": {"lat": "51.591944444444", "lng": "12.585277777778"}, "land": "Sachsen", "kreis": "Nordsachsen", "height": "98\u00a0m \u00fc.\u00a0NHN\n", "size": "45,81\u00a0km2\n", "inhabitants": "7865 (31.\u00a0Dez.\u00a02018)[1]\n", "inhabitants_km": "172\u00a0Einwohner je km2\n"}, {"name": "Bad D\u00fcrkheim", "url": "https://de.wikipedia.org/wiki/Bad_D%C3%BCrkheim", "name_url": "Bad_D%C3%BCrkheim", "lat_lng": {"lat": "49.459444444444", "lng": "8.1680555555556"}, "land": "Rheinland-Pfalz", "kreis": "Bad D\u00fcrkheim", "height": "132\u00a0m \u00fc.\u00a0NHN\n", "size": "102,67\u00a0km2\n", "inhabitants": "18.476 (31.\u00a0Dez.\u00a02018)[1]\n", "inhabitants_km": "180\u00a0Einwohner je km2\n"}, {"name": "Bad D\u00fcrrenberg", "url": "https://de.wikipedia.org/wiki/Bad_D%C3%BCrrenberg", "name_url": "Bad_D%C3%BCrrenberg", "lat_lng": {"lat": "51.30017", "lng": "12.06569"}, "land": "Sachsen-Anhalt", "kreis": "Saalekreis", "height": "104\u00a0m \u00fc.\u00a0NHN\n", "size": "36,15\u00a0km2\n", "inhabitants": "11.643 (31.\u00a0Dez.\u00a02018)[1]\n", "inhabitants_km": "322\u00a0Einwohner je km2\n", "founded": {"txt": "993 Bad D\u00fcrrenberg", "year": "993"}}, {"name": "Bad D\u00fcrrheim", "url": "https://de.wikipedia.org/wiki/Bad_D%C3%BCrrheim", "name_url": "Bad_D%C3%BCrrheim", "lat_lng": {"lat": "48.016666666667", "lng": "8.5333333333333"}, "land": "Baden-W\u00fcrttemberg", "kreis": "Schwarzwald-Baar-Kreis", "height": "703\u00a0m \u00fc.\u00a0NHN\n", "size": "62,09\u00a0km2\n", "inhabitants": "13.260 (31.\u00a0Dez.\u00a02018)[1]\n", "inhabitants_km": "214\u00a0Einwohner je km2\n", "founded": {"txt": "1974 Bad D\u00fcrrheim", "year": "1974"}}, {"name": "Bad Elster", "url": "https://de.wikipedia.org/wiki/Bad_Elster", "name_url": "Bad_Elster", "lat_lng": {"lat": "50.281944444444", "lng": "12.234722222222"}, "land": "Sachsen", "kreis": "Vogtlandkreis", "height": "546\u00a0m \u00fc.\u00a0NHN\n", "size": "19,77\u00a0km2\n", "inhabitants": "3654 (31.\u00a0Dez.\u00a02018)[1]\n", "inhabitants_km": "185\u00a0Einwohner je km2\n", "first_mentioned": {"txt": "1324 Bad Elster, erste urkundliche Erw\u00e4hnung", "year": "1324"}, "founded": {"txt": "1935 Bad Elster", "year": "1935"}}, {"name": "Bad Ems", "url": "https://de.wikipedia.org/wiki/Bad_Ems", "name_url": "Bad_Ems", "lat_lng": {"lat": "50.338055555556", "lng": "7.7105555555556"}, "land": "Rheinland-Pfalz", "kreis": "Rhein-Lahn-Kreis", "height": "82\u00a0m \u00fc.\u00a0NHN\n", "size": "15,36\u00a0km2\n", "inhabitants": "9681 (31.\u00a0Dez.\u00a02018)[1]\n", "inhabitants_km": "630\u00a0Einwohner je km2\n", "first_mentioned": {"txt": "880 Bad Ems, erste urkundliche Erw\u00e4hnung", "year": "880"}}, {"name": "Baden-Baden", "url": "https://de.wikipedia.org/wiki/Baden-Baden", "name_url": "Baden-Baden", "lat_lng": {"lat": "48.761944444444", "lng": "8.2408333333333"}, "land": "Baden-W\u00fcrttemberg", "height": "161\u00a0m \u00fc.\u00a0NHN\n", "size": "140,21\u00a0km2\n", "inhabitants": "55.123 (31.\u00a0Dez.\u00a02018)[1]\n", "inhabitants_km": "393\u00a0Einwohner je km2\n"}, {"name": "Bad Fallingbostel", "url": "https://de.wikipedia.org/wiki/Bad_Fallingbostel", "name_url": "Bad_Fallingbostel", "lat_lng": {"lat": "52.8675", "lng": "9.6966666666667"}, "land": "Niedersachsen", "kreis": "Heidekreis", "height": "67\u00a0m \u00fc.\u00a0NHN\n", "size": "63,49\u00a0km2\n", "inhabitants": "11.852 (31.\u00a0Dez.\u00a02018)[1]\n", "inhabitants_km": "187\u00a0Einwohner je km2\n"}, {"name": "Bad Frankenhausen/Kyffh\u00e4user", "url": "https://de.wikipedia.org/wiki/Bad_Frankenhausen/Kyffh%C3%A4user", "name_url": "Bad_Frankenhausen/Kyffh%C3%A4user", "lat_lng": {"lat": "51.355833333333", "lng": "11.101111111111"}, "land": "Th\u00fcringen", "kreis": "Kyffh\u00e4userkreis", "height": "132\u00a0m \u00fc.\u00a0NHN\n", "size": "91,07\u00a0km2\n", "inhabitants": "10.230 (31.\u00a0Dez.\u00a02018)[1]\n", "inhabitants_km": "112\u00a0Einwohner je km2\n", "first_mentioned": {"txt": "998 Bad Frankenhausen/Kyffh\u00e4user, erste urkundliche Erw\u00e4hnung", "year": "998"}, "founded": {"txt": "1219 Bad Frankenhausen/Kyffh\u00e4user", "year": "1219 "}}, {"name": "Bad Freienwalde (Oder)", "url": "https://de.wikipedia.org/wiki/Bad_Freienwalde_(Oder)", "name_url": "Bad_Freienwalde_(Oder)", "lat_lng": {"lat": "52.788055555556", "lng": "14.030833333333"}, "land": "Brandenburg", "kreis": "M\u00e4rkisch-Oderland", "height": "10\u00a0m \u00fc.\u00a0NHN\n", "size": "131,11\u00a0km2\n", "inhabitants": "12.365 (31.\u00a0Dez.\u00a02018)[1]\n", "inhabitants_km": "94\u00a0Einwohner je km2\n", "founded": {"txt": "1316 Bad Freienwalde (Oder)", "year": "1316"}}, {"name": "Bad Friedrichshall", "url": "https://de.wikipedia.org/wiki/Bad_Friedrichshall", "name_url": "Bad_Friedrichshall", "lat_lng": {"lat": "49.227583333333", "lng": "9.21025"}, "land": "Baden-W\u00fcrttemberg", "kreis": "Heilbronn", "height": "178\u00a0m \u00fc.\u00a0NHN\n", "size": "24,7\u00a0km2\n", "inhabitants": "19.264 (31.\u00a0Dez.\u00a02018)[1]\n", "inhabitants_km": "780\u00a0Einwohner je km2\n"}, {"name": "Bad Gandersheim", "url": "https://de.wikipedia.org/wiki/Bad_Gandersheim", "name_url": "Bad_Gandersheim", "lat_lng": {"lat": "51.87051", "lng": "10.02673"}, "land": "Niedersachsen", "kreis": "Northeim", "height": "143\u00a0m \u00fc.\u00a0NHN\n", "size": "90,48\u00a0km2\n", "inhabitants": "9823 (31.\u00a0Dez.\u00a02018)[1]\n", "inhabitants_km": "109\u00a0Einwohner je km2\n"}, {"name": "Bad Gottleuba-Berggie\u00dfh\u00fcbel", "url": "https://de.wikipedia.org/wiki/Bad_Gottleuba-Berggie%C3%9Fh%C3%BCbel", "name_url": "Bad_Gottleuba-Berggie%C3%9Fh%C3%BCbel", "lat_lng": {"lat": "50.858333333333", "lng": "13.95"}, "land": "Sachsen", "kreis": "S\u00e4chsische Schweiz-Osterzgebirge", "height": "334\u00a0m \u00fc.\u00a0NHN\n", "size": "88,72\u00a0km2\n", "inhabitants": "5633 (31.\u00a0Dez.\u00a02018)[1]\n", "inhabitants_km": "63\u00a0Einwohner je km2\n", "first_mentioned": {"txt": "1363 Bad Gottleuba, erste urkundliche Erw\u00e4hnung", "year": "1363"}, "founded": {"txt": "1463 Bad Gottleuba", "year": "1463"}}, {"name": "Bad Griesbach im Rottal", "url": "https://de.wikipedia.org/wiki/Bad_Griesbach_im_Rottal", "name_url": "Bad_Griesbach_im_Rottal", "lat_lng": {"lat": "48.45", "lng": "13.2"}, "land": "Bayern", "kreis": "Passau", "height": "453\u00a0m \u00fc.\u00a0NHN\n", "size": "70,16\u00a0km2\n", "inhabitants": "9055 (31.\u00a0Dez.\u00a02018)[1]\n", "inhabitants_km": "129\u00a0Einwohner je km2\n", "founded": {"txt": "1953 Bad Griesbach im Rottal", "year": "1953"}}, {"name": "Bad Harzburg", "url": "https://de.wikipedia.org/wiki/Bad_Harzburg", "name_url": "Bad_Harzburg", "lat_lng": {"lat": "51.881111111111", "lng": "10.562222222222"}, "land": "Niedersachsen", "kreis": "Goslar", "height": "261\u00a0m \u00fc.\u00a0NHN\n", "size": "65,42\u00a0km2\n", "inhabitants": "21.945 (31.\u00a0Dez.\u00a02018)[1]\n", "inhabitants_km": "335\u00a0Einwohner je km2\n"}, {"name": "Bad Herrenalb", "url": "https://de.wikipedia.org/wiki/Bad_Herrenalb", "name_url": "Bad_Herrenalb", "lat_lng": {"lat": "48.800555555556", "lng": "8.4408333333333"}, "land": "Baden-W\u00fcrttemberg", "kreis": "Calw", "height": "365\u00a0m \u00fc.\u00a0NHN\n", "size": "33,03\u00a0km2\n", "inhabitants": "7948 (31.\u00a0Dez.\u00a02018)[1]\n", "inhabitants_km": "241\u00a0Einwohner je km2\n"}, {"name": "Bad Hersfeld", "url": "https://de.wikipedia.org/wiki/Bad_Hersfeld", "name_url": "Bad_Hersfeld", "lat_lng": {"lat": "50.868055555556", "lng": "9.7069444444444"}, "land": "Hessen", "kreis": "Hersfeld-Rotenburg", "height": "212\u00a0m \u00fc.\u00a0NHN\n", "size": "73,82\u00a0km2\n", "inhabitants": "29.800 (31.\u00a0Dez.\u00a02018)[1]\n", "inhabitants_km": "404\u00a0Einwohner je km2\n", "first_mentioned": {"txt": "736 Bad Hersfeld, erste urkundliche Erw\u00e4hnung in der Vita Sturmi (Sturmius siedelt in Haerulfisfelt)", "year": "736"}}, {"name": "Bad Homburg vor der H\u00f6he", "url": "https://de.wikipedia.org/wiki/Bad_Homburg_vor_der_H%C3%B6he", "name_url": "Bad_Homburg_vor_der_H%C3%B6he", "lat_lng": {"lat": "50.229236111111", "lng": "8.6104861111111"}, "land": "Hessen", "kreis": "Hochtaunuskreis", "height": "194\u00a0m \u00fc.\u00a0NHN\n", "size": "51,16\u00a0km2\n", "inhabitants": "54.248 (31.\u00a0Dez.\u00a02018)[1]\n", "inhabitants_km": "1060\u00a0Einwohner je km2\n"}, {"name": "Bad Honnef", "url": "https://de.wikipedia.org/wiki/Bad_Honnef", "name_url": "Bad_Honnef", "lat_lng": {"lat": "50.645", "lng": "7.2269444444444"}, "land": "Nordrhein-Westfalen", "height": "75\u00a0m \u00fc.\u00a0NHN\n", "size": "48,17\u00a0km2\n", "inhabitants": "25.816 (31.\u00a0Dez.\u00a02018)[1]\n", "inhabitants_km": "536\u00a0Einwohner je km2\n"}, {"name": "Bad H\u00f6nningen", "url": "https://de.wikipedia.org/wiki/Bad_H%C3%B6nningen", "name_url": "Bad_H%C3%B6nningen", "lat_lng": {"lat": "50.517777777778", "lng": "7.3086111111111"}, "land": "Rheinland-Pfalz", "kreis": "Neuwied", "height": "65\u00a0m \u00fc.\u00a0NHN\n", "size": "20,09\u00a0km2\n", "inhabitants": "5920 (31.\u00a0Dez.\u00a02018)[1]\n", "inhabitants_km": "295\u00a0Einwohner je km2\n", "founded": {"txt": "1969 Bad H\u00f6nningen", "year": "1969"}}, {"name": "Bad Iburg", "url": "https://de.wikipedia.org/wiki/Bad_Iburg", "name_url": "Bad_Iburg", "lat_lng": {"lat": "52.159166666667", "lng": "8.0472222222222"}, "land": "Niedersachsen", "kreis": "Osnabr\u00fcck", "height": "104\u00a0m \u00fc.\u00a0NHN\n", "size": "36,5\u00a0km2\n", "inhabitants": "10.661 (31.\u00a0Dez.\u00a02018)[1]\n", "inhabitants_km": "292\u00a0Einwohner je km2\n"}, {"name": "Bad Karlshafen", "url": "https://de.wikipedia.org/wiki/Bad_Karlshafen", "name_url": "Bad_Karlshafen", "lat_lng": {"lat": "51.643", "lng": "9.453"}, "land": "Hessen", "kreis": "Kassel", "height": "101\u00a0m \u00fc.\u00a0NHN\n", "size": "14,85\u00a0km2\n", "inhabitants": "3650 (31.\u00a0Dez.\u00a02018)[1]\n", "inhabitants_km": "246\u00a0Einwohner je km2\n", "founded": {"txt": "1699 Bad Karlshafen, Gr\u00fcndung als Ausgangspunkt eines von der Weser abgehenden Kanales", "year": "1699"}}, {"name": "Bad Kissingen", "url": "https://de.wikipedia.org/wiki/Bad_Kissingen", "name_url": "Bad_Kissingen", "lat_lng": {"lat": "50.199444444444", "lng": "10.076388888889"}, "land": "Bayern", "kreis": "Bad Kissingen", "height": "206\u00a0m \u00fc.\u00a0NHN\n", "size": "69,93\u00a0km2\n", "inhabitants": "22.444 (31.\u00a0Dez.\u00a02018)[1]\n", "inhabitants_km": "321\u00a0Einwohner je km2\n"}, {"name": "Bad K\u00f6nig", "url": "https://de.wikipedia.org/wiki/Bad_K%C3%B6nig", "name_url": "Bad_K%C3%B6nig", "lat_lng": {"lat": "49.74125", "lng": "9.0070833333333"}, "land": "Hessen", "kreis": "Odenwaldkreis", "height": "182\u00a0m \u00fc.\u00a0NHN\n", "size": "46,73\u00a0km2\n", "inhabitants": "9762 (31.\u00a0Dez.\u00a02018)[1]\n", "inhabitants_km": "209\u00a0Einwohner je km2\n"}, {"name": "Bad K\u00f6nigshofen im Grabfeld", "url": "https://de.wikipedia.org/wiki/Bad_K%C3%B6nigshofen_im_Grabfeld", "name_url": "Bad_K%C3%B6nigshofen_im_Grabfeld", "lat_lng": {"lat": "50.299207", "lng": "10.466943"}, "land": "Bayern", "kreis": "Rh\u00f6n-Grabfeld", "height": "275\u00a0m \u00fc.\u00a0NHN\n", "size": "69,52\u00a0km2\n", "inhabitants": "5984 (31.\u00a0Dez.\u00a02018)[1]\n", "inhabitants_km": "86\u00a0Einwohner je km2\n"}, {"name": "Bad K\u00f6stritz", "url": "https://de.wikipedia.org/wiki/Bad_K%C3%B6stritz", "name_url": "Bad_K%C3%B6stritz", "lat_lng": {"lat": "50.930555555556", "lng": "12.009722222222"}, "land": "Th\u00fcringen", "kreis": "Greiz", "height": "203\u00a0m \u00fc.\u00a0NHN\n", "size": "16,93\u00a0km2\n", "inhabitants": "3513 (31.\u00a0Dez.\u00a02018)[1]\n", "inhabitants_km": "208\u00a0Einwohner je km2\n", "first_mentioned": {"txt": "1364 Bad K\u00f6stritz, erste urkundliche Erw\u00e4hnung", "year": "1364"}, "founded": {"txt": "1927 Bad K\u00f6stritz", "year": "1927"}}, {"name": "Bad K\u00f6tzting", "url": "https://de.wikipedia.org/wiki/Bad_K%C3%B6tzting", "name_url": "Bad_K%C3%B6tzting", "lat_lng": {"lat": "49.17479", "lng": "12.85496"}, "land": "Bayern", "kreis": "Cham", "height": "409\u00a0m \u00fc.\u00a0NHN\n", "size": "62,18\u00a0km2\n", "inhabitants": "7498 (31.\u00a0Dez.\u00a02018)[1]\n", "inhabitants_km": "121\u00a0Einwohner je km2\n"}, {"name": "Bad Kreuznach", "url": "https://de.wikipedia.org/wiki/Bad_Kreuznach", "name_url": "Bad_Kreuznach", "lat_lng": {"lat": "49.846944444444", "lng": "7.8669444444444"}, "land": "Rheinland-Pfalz", "kreis": "Bad Kreuznach", "height": "104\u00a0m \u00fc.\u00a0NHN\n", "size": "55,63\u00a0km2\n", "inhabitants": "50.948 (31.\u00a0Dez.\u00a02018)[1]\n", "inhabitants_km": "916\u00a0Einwohner je km2\n", "first_mentioned": {"txt": "819 Bad Kreuznach erste urkundliche Erw\u00e4hnung in den Annales Regni Francorum als Cruciniacum", "year": "819 "}, "founded": {"txt": "1290 Bad Kreuznach Best\u00e4tigung der Stadtrechte von 1235 und 1270 durch K\u00f6nig Rudolf I. von Habsburg", "year": "1290"}}, {"name": "Bad Krozingen", "url": "https://de.wikipedia.org/wiki/Bad_Krozingen", "name_url": "Bad_Krozingen", "lat_lng": {"lat": "47.918055555556", "lng": "7.7025"}, "land": "Baden-W\u00fcrttemberg", "kreis": "Breisgau-Hochschwarzwald", "height": "233\u00a0m \u00fc.\u00a0NHN\n", "size": "35,66\u00a0km2\n", "inhabitants": "19.644 (31.\u00a0Dez.\u00a02018)[1]\n", "inhabitants_km": "551\u00a0Einwohner je km2\n", "founded": {"txt": "2005 Bad Krozingen (Landkreis Breisgau-Hochschwarzwald), Verleihung der Stadtrechte", "year": "2005 "}}, {"name": "Bad Laasphe", "url": "https://de.wikipedia.org/wiki/Bad_Laasphe", "name_url": "Bad_Laasphe", "lat_lng": {"lat": "50.927222222222", "lng": "8.4122222222222"}, "land": "Nordrhein-Westfalen", "height": "330\u00a0m \u00fc.\u00a0NHN\n", "size": "135,95\u00a0km2\n", "inhabitants": "13.565 (31.\u00a0Dez.\u00a02018)[1]\n", "inhabitants_km": "100\u00a0Einwohner je km2\n", "first_mentioned": {"txt": "780 Bad Laasphe, erste urkundliche Erw\u00e4hnung", "year": "780 "}, "founded": {"txt": "1277 Bad Laasphe", "year": "1277 "}}, {"name": "Bad Langensalza", "url": "https://de.wikipedia.org/wiki/Bad_Langensalza", "name_url": "Bad_Langensalza", "lat_lng": {"lat": "51.108055555556", "lng": "10.646666666667"}, "land": "Th\u00fcringen", "kreis": "Unstrut-Hainich-Kreis", "height": "200\u00a0m \u00fc.\u00a0NHN\n", "size": "129,37\u00a0km2\n", "inhabitants": "17.441 (31.\u00a0Dez.\u00a02018)[1]\n", "inhabitants_km": "135\u00a0Einwohner je km2\n", "first_mentioned": {"txt": "932 Bad Langensalza, erste urkundliche Erw\u00e4hnung", "year": "932"}, "founded": {"txt": "1212 Bad Langensalza", "year": "1212"}}, {"name": "Bad Lauchst\u00e4dt", "url": "https://de.wikipedia.org/wiki/Bad_Lauchst%C3%A4dt", "name_url": "Bad_Lauchst%C3%A4dt", "lat_lng": {"lat": "51.386944444444", "lng": "11.866944444444"}, "land": "Sachsen-Anhalt", "kreis": "Saalekreis", "height": "114\u00a0m \u00fc.\u00a0NHN\n", "size": "85,37\u00a0km2\n", "inhabitants": "8783 (31.\u00a0Dez.\u00a02018)[1]\n", "inhabitants_km": "103\u00a0Einwohner je km2\n"}, {"name": "Bad Lausick", "url": "https://de.wikipedia.org/wiki/Bad_Lausick", "name_url": "Bad_Lausick", "lat_lng": {"lat": "51.144722222222", "lng": "12.645277777778"}, "land": "Sachsen", "kreis": "Leipzig", "height": "164\u00a0m \u00fc.\u00a0NHN\n", "size": "70,03\u00a0km2\n", "inhabitants": "8005 (31.\u00a0Dez.\u00a02018)[1]\n", "inhabitants_km": "114\u00a0Einwohner je km2\n", "first_mentioned": {"txt": "1106 Bad Lausick, erste urkundliche Erw\u00e4hnung", "year": "1106"}}, {"name": "Bad Lauterberg im Harz", "url": "https://de.wikipedia.org/wiki/Bad_Lauterberg_im_Harz", "name_url": "Bad_Lauterberg_im_Harz", "lat_lng": {"lat": "51.631666666667", "lng": "10.470555555556"}, "land": "Niedersachsen", "kreis": "G\u00f6ttingen", "height": "296\u00a0m \u00fc.\u00a0NHN\n", "size": "41,55\u00a0km2\n", "inhabitants": "10.269 (31.\u00a0Dez.\u00a02018)[1]\n", "inhabitants_km": "247\u00a0Einwohner je km2\n"}, {"name": "Bad Liebenstein (Gemeinde)", "url": "https://de.wikipedia.org/wiki/Bad_Liebenstein_(Gemeinde)", "name_url": "Bad_Liebenstein_(Gemeinde)", "lat_lng": {"lat": "50.814444444444", "lng": "10.354166666667"}, "land": "Th\u00fcringen", "kreis": "Wartburgkreis", "height": "344\u00a0m \u00fc.\u00a0NHN\n", "size": "48,81\u00a0km2\n", "inhabitants": "7786 (31.\u00a0Dez.\u00a02018)[1]\n", "inhabitants_km": "160\u00a0Einwohner je km2\n"}, {"name": "Bad Liebenwerda", "url": "https://de.wikipedia.org/wiki/Bad_Liebenwerda", "name_url": "Bad_Liebenwerda", "lat_lng": {"lat": "51.515833333333", "lng": "13.3925"}, "land": "Brandenburg", "kreis": "Elbe-Elster", "height": "86\u00a0m \u00fc.\u00a0NHN\n", "size": "138,88\u00a0km2\n", "inhabitants": "9188 (31.\u00a0Dez.\u00a02018)[1]\n", "inhabitants_km": "66\u00a0Einwohner je km2\n", "first_mentioned": {"txt": "1231 Bad Liebenwerda, erste urkundliche Erw\u00e4hnung", "year": "1231 "}, "founded": {"txt": "1304 Bad Liebenwerda (erstmals als civitas bezeichnet, Rechte \u00e4lter)", "year": "1304"}}, {"name": "Bad Liebenzell", "url": "https://de.wikipedia.org/wiki/Bad_Liebenzell", "name_url": "Bad_Liebenzell", "lat_lng": {"lat": "48.774166666667", "lng": "8.7313888888889"}, "land": "Baden-W\u00fcrttemberg", "kreis": "Calw", "height": "320\u00a0m \u00fc.\u00a0NHN\n", "size": "33,8\u00a0km2\n", "inhabitants": "9573 (31.\u00a0Dez.\u00a02018)[1]\n", "inhabitants_km": "283\u00a0Einwohner je km2\n"}, {"name": "Bad Lippspringe", "url": "https://de.wikipedia.org/wiki/Bad_Lippspringe", "name_url": "Bad_Lippspringe", "lat_lng": {"lat": "51.782505555556", "lng": "8.8186222222222"}, "land": "Nordrhein-Westfalen", "height": "140\u00a0m \u00fc.\u00a0NHN\n", "size": "51,01\u00a0km2\n", "inhabitants": "16.089 (31.\u00a0Dez.\u00a02018)[1]\n", "inhabitants_km": "315\u00a0Einwohner je km2\n"}, {"name": "Bad Lobenstein", "url": "https://de.wikipedia.org/wiki/Bad_Lobenstein", "name_url": "Bad_Lobenstein", "lat_lng": {"lat": "50.4475", "lng": "11.64"}, "land": "Th\u00fcringen", "kreis": "Saale-Orla-Kreis", "height": "560\u00a0m \u00fc.\u00a0NHN\n", "size": "48,92\u00a0km2\n", "inhabitants": "5931 (31.\u00a0Dez.\u00a02018)[1]\n", "inhabitants_km": "121\u00a0Einwohner je km2\n", "first_mentioned": {"txt": "1250 Bad Lobenstein, erste urkundliche Erw\u00e4hnung", "year": "1250"}, "founded": {"txt": "1278 Bad Lobenstein", "year": "1278"}}, {"name": "Bad Marienberg (Westerwald)", "url": "https://de.wikipedia.org/wiki/Bad_Marienberg_(Westerwald)", "name_url": "Bad_Marienberg_(Westerwald)", "lat_lng": {"lat": "50.651944444444", "lng": "7.9522222222222"}, "land": "Rheinland-Pfalz", "kreis": "Westerwaldkreis", "height": "470\u00a0m \u00fc.\u00a0NHN\n", "size": "9,96\u00a0km2\n", "inhabitants": "5961 (31.\u00a0Dez.\u00a02018)[1]\n", "inhabitants_km": "598\u00a0Einwohner je km2\n"}, {"name": "Bad Mergentheim", "url": "https://de.wikipedia.org/wiki/Bad_Mergentheim", "name_url": "Bad_Mergentheim", "lat_lng": {"lat": "49.490197222222", "lng": "9.7731527777778"}, "land": "Baden-W\u00fcrttemberg", "kreis": "Main-Tauber-Kreis", "height": "206\u00a0m \u00fc.\u00a0NHN\n", "size": "129,97\u00a0km2\n", "inhabitants": "23.704 (31.\u00a0Dez.\u00a02018)[1]\n", "inhabitants_km": "182\u00a0Einwohner je km2\n", "first_mentioned": {"txt": "1058 Mergentheim, erste urkundliche Erw\u00e4hnung", "year": "1058"}, "founded": {"txt": "1340 Bad Mergentheim", "year": "1340"}}, {"name": "Bad M\u00fcnder am Deister", "url": "https://de.wikipedia.org/wiki/Bad_M%C3%BCnder_am_Deister", "name_url": "Bad_M%C3%BCnder_am_Deister", "lat_lng": {"lat": "52.199166666667", "lng": "9.4652777777778"}, "land": "Niedersachsen", "kreis": "Hameln-Pyrmont", "height": "119\u00a0m \u00fc.\u00a0NHN\n", "size": "107,69\u00a0km2\n", "inhabitants": "17.465 (31.\u00a0Dez.\u00a02018)[1]\n", "inhabitants_km": "162\u00a0Einwohner je km2\n"}, {"name": "Bad M\u00fcnstereifel", "url": "https://de.wikipedia.org/wiki/Bad_M%C3%BCnstereifel", "name_url": "Bad_M%C3%BCnstereifel", "lat_lng": {"lat": "50.553055555556", "lng": "6.7661111111111"}, "land": "Nordrhein-Westfalen", "height": "280\u00a0m \u00fc.\u00a0NHN\n", "size": "150,83\u00a0km2\n", "inhabitants": "17.299 (31.\u00a0Dez.\u00a02018)[1]\n", "inhabitants_km": "115\u00a0Einwohner je km2\n"}, {"name": "Bad Muskau", "url": "https://de.wikipedia.org/wiki/Bad_Muskau", "name_url": "Bad_Muskau", "lat_lng": {"lat": "51.545833333333", "lng": "14.720833333333"}, "land": "Sachsen", "kreis": "G\u00f6rlitz", "height": "110\u00a0m \u00fc.\u00a0NHN\n", "size": "15,38\u00a0km2\n", "inhabitants": "3716 (31.\u00a0Dez.\u00a02018)[1]\n", "inhabitants_km": "242\u00a0Einwohner je km2\n", "first_mentioned": {"txt": "1249 Bad Muskau, erste urkundliche Erw\u00e4hnung, 1452 Stadtrecht durch Wenzel von Bieberstein", "year": "1249"}}, {"name": "Bad Nauheim", "url": "https://de.wikipedia.org/wiki/Bad_Nauheim", "name_url": "Bad_Nauheim", "lat_lng": {"lat": "50.366666666667", "lng": "8.75"}, "land": "Hessen", "kreis": "Wetteraukreis", "height": "151\u00a0m \u00fc.\u00a0NHN\n", "size": "32,54\u00a0km2\n", "inhabitants": "32.163 (31.\u00a0Dez.\u00a02018)[1]\n", "inhabitants_km": "988\u00a0Einwohner je km2\n"}, {"name": "Bad Nenndorf", "url": "https://de.wikipedia.org/wiki/Bad_Nenndorf", "name_url": "Bad_Nenndorf", "lat_lng": {"lat": "52.336944444444", "lng": "9.3786111111111"}, "land": "Niedersachsen", "kreis": "Schaumburg", "height": "88\u00a0m \u00fc.\u00a0NHN\n", "size": "23,21\u00a0km2\n", "inhabitants": "11.144 (31.\u00a0Dez.\u00a02018)[1]\n", "inhabitants_km": "480\u00a0Einwohner je km2\n"}, {"name": "Bad Neuenahr-Ahrweiler", "url": "https://de.wikipedia.org/wiki/Bad_Neuenahr-Ahrweiler", "name_url": "Bad_Neuenahr-Ahrweiler", "lat_lng": {"lat": "50.544722222222", "lng": "7.1133333333333"}, "land": "Rheinland-Pfalz", "kreis": "Ahrweiler", "height": "99\u00a0m \u00fc.\u00a0NHN\n", "size": "63,4\u00a0km2\n", "inhabitants": "28.251 (31.\u00a0Dez.\u00a02018)[1]\n", "inhabitants_km": "446\u00a0Einwohner je km2\n"}, {"name": "Bad Neustadt an der Saale", "url": "https://de.wikipedia.org/wiki/Bad_Neustadt_an_der_Saale", "name_url": "Bad_Neustadt_an_der_Saale", "lat_lng": {"lat": "50.321944444444", "lng": "10.216111111111"}, "land": "Bayern", "kreis": "Rh\u00f6n-Grabfeld", "height": "242\u00a0m \u00fc.\u00a0NHN\n", "size": "36,9\u00a0km2\n", "inhabitants": "15.411 (31.\u00a0Dez.\u00a02018)[1]\n", "inhabitants_km": "418\u00a0Einwohner je km2\n"}, {"name": "Bad Oeynhausen", "url": "https://de.wikipedia.org/wiki/Bad_Oeynhausen", "name_url": "Bad_Oeynhausen", "lat_lng": {"lat": "52.2", "lng": "8.8"}, "land": "Nordrhein-Westfalen", "height": "55\u00a0m \u00fc.\u00a0NHN\n", "size": "64,83\u00a0km2\n", "inhabitants": "48.702 (31.\u00a0Dez.\u00a02018)[1]\n", "inhabitants_km": "751\u00a0Einwohner je km2\n"}, {"name": "Bad Oldesloe", "url": "https://de.wikipedia.org/wiki/Bad_Oldesloe", "name_url": "Bad_Oldesloe", "lat_lng": {"lat": "53.80982", "lng": "10.37344"}, "land": "Schleswig-Holstein", "height": "9\u00a0m \u00fc.\u00a0NHN\n", "size": "52,6\u00a0km2\n", "inhabitants": "24.744 (31.\u00a0Dez.\u00a02018)[1]\n", "inhabitants_km": "470\u00a0Einwohner je km2\n"}, {"name": "Bad Orb", "url": "https://de.wikipedia.org/wiki/Bad_Orb", "name_url": "Bad_Orb", "lat_lng": {"lat": "50.227777777778", "lng": "9.3480555555556"}, "land": "Hessen", "kreis": "Main-Kinzig-Kreis", "height": "189\u00a0m \u00fc.\u00a0NHN\n", "size": "47,78\u00a0km2\n", "inhabitants": "10.020 (31.\u00a0Dez.\u00a02018)[1]\n", "inhabitants_km": "210\u00a0Einwohner je km2\n"}, {"name": "Bad Pyrmont", "url": "https://de.wikipedia.org/wiki/Bad_Pyrmont", "name_url": "Bad_Pyrmont", "lat_lng": {"lat": "51.985277777778", "lng": "9.2622222222222"}, "land": "Niedersachsen", "kreis": "Hameln-Pyrmont", "height": "111\u00a0m \u00fc.\u00a0NHN\n", "size": "61,97\u00a0km2\n", "inhabitants": "19.090 (31.\u00a0Dez.\u00a02018)[1]\n", "inhabitants_km": "308\u00a0Einwohner je km2\n"}, {"name": "Bad Rappenau", "url": "https://de.wikipedia.org/wiki/Bad_Rappenau", "name_url": "Bad_Rappenau", "lat_lng": {"lat": "49.239722222222", "lng": "9.1025"}, "land": "Baden-W\u00fcrttemberg", "kreis": "Heilbronn", "height": "235\u00a0m \u00fc.\u00a0NHN\n", "size": "73,55\u00a0km2\n", "inhabitants": "21.398 (31.\u00a0Dez.\u00a02018)[1]\n", "inhabitants_km": "291\u00a0Einwohner je km2\n", "first_mentioned": {"txt": "1343 Rappenau, erste urkundliche Erw\u00e4hnung", "year": "1343 "}}, {"name": "Bad Reichenhall", "url": "https://de.wikipedia.org/wiki/Bad_Reichenhall", "name_url": "Bad_Reichenhall", "lat_lng": {"lat": "47.730685", "lng": "12.882423"}, "land": "Bayern", "kreis": "Berchtesgadener Land", "height": "473\u00a0m \u00fc.\u00a0NHN\n", "size": "41,92\u00a0km2\n", "inhabitants": "18.278 (31.\u00a0Dez.\u00a02018)[1]\n", "inhabitants_km": "436\u00a0Einwohner je km2\n"}, {"name": "Bad Rodach", "url": "https://de.wikipedia.org/wiki/Bad_Rodach", "name_url": "Bad_Rodach", "lat_lng": {"lat": "50.341111111111", "lng": "10.778611111111"}, "land": "Bayern", "kreis": "Coburg", "height": "320\u00a0m \u00fc.\u00a0NHN\n", "size": "77,65\u00a0km2\n", "inhabitants": "6394 (31.\u00a0Dez.\u00a02018)[1]\n", "inhabitants_km": "82\u00a0Einwohner je km2\n", "first_mentioned": {"txt": "1135 Bad Rodach, erste urkundliche Erw\u00e4hnung", "year": "1135"}, "founded": {"txt": "1362 Bad Rodach", "year": "1362"}}, {"name": "Bad Sachsa", "url": "https://de.wikipedia.org/wiki/Bad_Sachsa", "name_url": "Bad_Sachsa", "lat_lng": {"lat": "51.596944444444", "lng": "10.552222222222"}, "land": "Niedersachsen", "kreis": "G\u00f6ttingen", "height": "357\u00a0m \u00fc.\u00a0NHN\n", "size": "33,13\u00a0km2\n", "inhabitants": "7346 (31.\u00a0Dez.\u00a02018)[1]\n", "inhabitants_km": "222\u00a0Einwohner je km2\n"}, {"name": "Bad S\u00e4ckingen", "url": "https://de.wikipedia.org/wiki/Bad_S%C3%A4ckingen", "name_url": "Bad_S%C3%A4ckingen", "lat_lng": {"lat": "47.553333333333", "lng": "7.9472222222222"}, "land": "Baden-W\u00fcrttemberg", "kreis": "Waldshut", "height": "290\u00a0m \u00fc.\u00a0NHN\n", "size": "25,34\u00a0km2\n", "inhabitants": "17.144 (31.\u00a0Dez.\u00a02018)[1]\n", "inhabitants_km": "677\u00a0Einwohner je km2\n"}, {"name": "Bad Salzdetfurth", "url": "https://de.wikipedia.org/wiki/Bad_Salzdetfurth", "name_url": "Bad_Salzdetfurth", "lat_lng": {"lat": "52.065277777778", "lng": "10.009166666667"}, "land": "Niedersachsen", "kreis": "Hildesheim", "height": "118\u00a0m \u00fc.\u00a0NHN\n", "size": "67,11\u00a0km2\n", "inhabitants": "13.145 (31.\u00a0Dez.\u00a02018)[1]\n", "inhabitants_km": "196\u00a0Einwohner je km2\n"}, {"name": "Bad Salzuflen", "url": "https://de.wikipedia.org/wiki/Bad_Salzuflen", "name_url": "Bad_Salzuflen", "lat_lng": {"lat": "52.0875", "lng": "8.7505555555556"}, "land": "Nordrhein-Westfalen", "height": "72\u00a0m \u00fc.\u00a0NHN\n", "size": "100,05\u00a0km2\n", "inhabitants": "54.127 (31.\u00a0Dez.\u00a02018)[1]\n", "inhabitants_km": "541\u00a0Einwohner je km2\n", "first_mentioned": {"txt": "um 1050 Salzuflen, erste Erw\u00e4hnung der Siedlung \u201eUflon\u201c und einer dort befindlichen Salzst\u00e4tte", "year": "um 1050 "}, "founded": {"txt": "1488 Salzuflen, heute Bad Salzuflen (28. Mai)", "year": "1488"}}, {"name": "Bad Salzungen", "url": "https://de.wikipedia.org/wiki/Bad_Salzungen", "name_url": "Bad_Salzungen", "lat_lng": {"lat": "50.811666666667", "lng": "10.233333333333"}, "land": "Th\u00fcringen", "kreis": "Wartburgkreis", "height": "241\u00a0m \u00fc.\u00a0NHN\n", "size": "98,5\u00a0km2\n", "inhabitants": "20.244 (31.\u00a0Dez.\u00a02018)[1]\n", "inhabitants_km": "206\u00a0Einwohner je km2\n", "first_mentioned": {"txt": "775 Bad Salzungen, erste urkundliche Erw\u00e4hnung", "year": "775"}, "founded": {"txt": "1305 Bad Salzungen", "year": "1305"}}, {"name": "Bad Saulgau", "url": "https://de.wikipedia.org/wiki/Bad_Saulgau", "name_url": "Bad_Saulgau", "lat_lng": {"lat": "48.0175", "lng": "9.5002777777778"}, "land": "Baden-W\u00fcrttemberg", "kreis": "Sigmaringen", "height": "587\u00a0m \u00fc.\u00a0NHN\n", "size": "97,32\u00a0km2\n", "inhabitants": "17.509 (31.\u00a0Dez.\u00a02018)[1]\n", "inhabitants_km": "180\u00a0Einwohner je km2\n", "first_mentioned": {"txt": "819 Bad Saulgau, erste urkundliche Erw\u00e4hnung", "year": "819 "}, "founded": {"txt": "1239 Bad Saulgau", "year": "1239 "}}, {"name": "Bad Schandau", "url": "https://de.wikipedia.org/wiki/Bad_Schandau", "name_url": "Bad_Schandau", "lat_lng": {"lat": "50.916666666667", "lng": "14.15"}, "land": "Sachsen", "kreis": "S\u00e4chsische Schweiz-Osterzgebirge", "height": "146\u00a0m \u00fc.\u00a0NHN\n", "size": "46,76\u00a0km2\n", "inhabitants": "3622 (31.\u00a0Dez.\u00a02018)[1]\n", "inhabitants_km": "77\u00a0Einwohner je km2\n", "first_mentioned": {"txt": "1445 Bad Schandau, erste urkundliche Erw\u00e4hnung", "year": "1445"}, "founded": {"txt": "1467 Bad Schandau", "year": "1467"}}, {"name": "Bad Schmiedeberg", "url": "https://de.wikipedia.org/wiki/Bad_Schmiedeberg", "name_url": "Bad_Schmiedeberg", "lat_lng": {"lat": "51.688055555556", "lng": "12.7375"}, "land": "Sachsen-Anhalt", "kreis": "Wittenberg", "height": "100\u00a0m \u00fc.\u00a0NHN\n", "size": "160,02\u00a0km2\n", "inhabitants": "8222 (31.\u00a0Dez.\u00a02018)[1]\n", "inhabitants_km": "51\u00a0Einwohner je km2\n"}, {"name": "Bad Schussenried", "url": "https://de.wikipedia.org/wiki/Bad_Schussenried", "name_url": "Bad_Schussenried", "lat_lng": {"lat": "48.006666666667", "lng": "9.6586111111111"}, "land": "Baden-W\u00fcrttemberg", "kreis": "Biberach", "height": "570\u00a0m \u00fc.\u00a0NHN\n", "size": "55,01\u00a0km2\n", "inhabitants": "8734 (31.\u00a0Dez.\u00a02018)[1]\n", "inhabitants_km": "159\u00a0Einwohner je km2\n", "founded": {"txt": "1947 Bad Schussenried", "year": "1947 "}}, {"name": "Bad Schwalbach", "url": "https://de.wikipedia.org/wiki/Bad_Schwalbach", "name_url": "Bad_Schwalbach", "lat_lng": {"lat": "50.140138888889", "lng": "8.0694444444444"}, "land": "Hessen", "kreis": "Rheingau-Taunus-Kreis", "height": "306\u00a0m \u00fc.\u00a0NHN\n", "size": "40,27\u00a0km2\n", "inhabitants": "11.187 (31.\u00a0Dez.\u00a02018)[1]\n", "inhabitants_km": "278\u00a0Einwohner je km2\n"}, {"name": "Bad Schwartau", "url": "https://de.wikipedia.org/wiki/Bad_Schwartau", "name_url": "Bad_Schwartau", "lat_lng": {"lat": "53.919444444444", "lng": "10.6975"}, "land": "Schleswig-Holstein", "height": "8\u00a0m \u00fc.\u00a0NHN\n", "size": "18,39\u00a0km2\n", "inhabitants": "20.036 (31.\u00a0Dez.\u00a02018)[1]\n", "inhabitants_km": "1090\u00a0Einwohner je km2\n"}, {"name": "Bad Segeberg", "url": "https://de.wikipedia.org/wiki/Bad_Segeberg", "name_url": "Bad_Segeberg", "lat_lng": {"lat": "53.93581", "lng": "10.309027"}, "land": "Schleswig-Holstein", "height": "44\u00a0m \u00fc.\u00a0NHN\n", "size": "18,87\u00a0km2\n", "inhabitants": "17.267 (31.\u00a0Dez.\u00a02018)[1]\n", "inhabitants_km": "915\u00a0Einwohner je km2\n"}, {"name": "Bad Sobernheim", "url": "https://de.wikipedia.org/wiki/Bad_Sobernheim", "name_url": "Bad_Sobernheim", "lat_lng": {"lat": "49.783611111111", "lng": "7.6538888888889"}, "land": "Rheinland-Pfalz", "kreis": "Bad Kreuznach", "height": "150\u00a0m \u00fc.\u00a0NHN\n", "size": "54,01\u00a0km2\n", "inhabitants": "6573 (31.\u00a0Dez.\u00a02018)[1]\n", "inhabitants_km": "122\u00a0Einwohner je km2\n"}, {"name": "Bad Soden am Taunus", "url": "https://de.wikipedia.org/wiki/Bad_Soden_am_Taunus", "name_url": "Bad_Soden_am_Taunus", "lat_lng": {"lat": "50.142430555556", "lng": "8.4997222222222"}, "land": "Hessen", "kreis": "Main-Taunus-Kreis", "height": "141\u00a0m \u00fc.\u00a0NHN\n", "size": "12,55\u00a0km2\n", "inhabitants": "22.645 (31.\u00a0Dez.\u00a02018)[1]\n", "inhabitants_km": "1804\u00a0Einwohner je km2\n", "founded": {"txt": "1947 Bad Soden am Taunus", "year": "1947"}}, {"name": "Bad Soden-Salm\u00fcnster", "url": "https://de.wikipedia.org/wiki/Bad_Soden-Salm%C3%BCnster", "name_url": "Bad_Soden-Salm%C3%BCnster", "lat_lng": {"lat": "50.284166666667", "lng": "9.3658333333333"}, "land": "Hessen", "kreis": "Main-Kinzig-Kreis", "height": "147\u00a0m \u00fc.\u00a0NHN\n", "size": "58,6\u00a0km2\n", "inhabitants": "13.370 (31.\u00a0Dez.\u00a02018)[1]\n", "inhabitants_km": "228\u00a0Einwohner je km2\n"}, {"name": "Bad Sooden-Allendorf", "url": "https://de.wikipedia.org/wiki/Bad_Sooden-Allendorf", "name_url": "Bad_Sooden-Allendorf", "lat_lng": {"lat": "51.2675", "lng": "9.9663888888889"}, "land": "Hessen", "kreis": "Werra-Mei\u00dfner-Kreis", "height": "162\u00a0m \u00fc.\u00a0NHN\n", "size": "73,52\u00a0km2\n", "inhabitants": "8675 (31.\u00a0Dez.\u00a02018)[1]\n", "inhabitants_km": "118\u00a0Einwohner je km2\n"}, {"name": "Bad Staffelstein", "url": "https://de.wikipedia.org/wiki/Bad_Staffelstein", "name_url": "Bad_Staffelstein", "lat_lng": {"lat": "50.101388888889", "lng": "10.999722222222"}, "land": "Bayern", "kreis": "Lichtenfels", "height": "272\u00a0m \u00fc.\u00a0NHN\n", "size": "99,4\u00a0km2\n", "inhabitants": "10.389 (31.\u00a0Dez.\u00a02018)[1]\n", "inhabitants_km": "105\u00a0Einwohner je km2\n", "first_mentioned": {"txt": "um 800 Bad Staffelstein, erste urkundliche Erw\u00e4hnung", "year": "um 800 "}, "founded": {"txt": "1418 Bad Staffelstein", "year": "1418"}}, {"name": "Bad Sulza", "url": "https://de.wikipedia.org/wiki/Bad_Sulza", "name_url": "Bad_Sulza", "lat_lng": {"lat": "51.087680555556", "lng": "11.62325"}, "land": "Th\u00fcringen", "kreis": "Weimarer Land", "height": "140\u00a0m \u00fc.\u00a0NHN\n", "size": "91,14\u00a0km2\n", "inhabitants": "7651 (31.\u00a0Dez.\u00a02018)[1]\n", "inhabitants_km": "84\u00a0Einwohner je km2\n", "first_mentioned": {"txt": "1064 Bad Sulza, erste urkundliche Erw\u00e4hnung", "year": "1064"}, "founded": {"txt": "1353 Bad Sulza", "year": "1353"}}, {"name": "Bad S\u00fclze", "url": "https://de.wikipedia.org/wiki/Bad_S%C3%BClze", "name_url": "Bad_S%C3%BClze", "lat_lng": {"lat": "54.110277777778", "lng": "12.657777777778"}, "land": "Mecklenburg-Vorpommern", "kreis": "Vorpommern-R\u00fcgen", "height": "11\u00a0m \u00fc.\u00a0NHN\n", "size": "26,36\u00a0km2\n", "inhabitants": "1710 (31.\u00a0Dez.\u00a02018)[1]\n", "inhabitants_km": "65\u00a0Einwohner je km2\n", "founded": {"txt": "1229 Bad S\u00fclze (bzw. 1243), urk. Ersterw\u00e4hnung als sulta, Stadtrecht zw. 1255 und 1260 durch die Herrschaft Rostock", "year": "1229 "}}, {"name": "Bad Teinach-Zavelstein", "url": "https://de.wikipedia.org/wiki/Bad_Teinach-Zavelstein", "name_url": "Bad_Teinach-Zavelstein", "lat_lng": {"lat": "48.692222222222", "lng": "8.6808333333333"}, "land": "Baden-W\u00fcrttemberg", "kreis": "Calw", "height": "391\u00a0m \u00fc.\u00a0NHN\n", "size": "25,18\u00a0km2\n", "inhabitants": "3094 (31.\u00a0Dez.\u00a02018)[1]\n", "inhabitants_km": "123\u00a0Einwohner je km2\n"}, {"name": "Bad Tennstedt", "url": "https://de.wikipedia.org/wiki/Bad_Tennstedt", "name_url": "Bad_Tennstedt", "lat_lng": {"lat": "51.153888888889", "lng": "10.837222222222"}, "land": "Th\u00fcringen", "kreis": "Unstrut-Hainich-Kreis", "height": "172\u00a0m \u00fc.\u00a0NHN\n", "size": "27,42\u00a0km2\n", "inhabitants": "2482 (31.\u00a0Dez.\u00a02018)[1]\n", "inhabitants_km": "91\u00a0Einwohner je km2\n", "first_mentioned": {"txt": "772 Bad Tennstedt, erste urkundliche Erw\u00e4hnung", "year": "772 "}, "founded": {"txt": "1340 Bad Tennstedt", "year": "1340 "}}, {"name": "Bad T\u00f6lz", "url": "https://de.wikipedia.org/wiki/Bad_T%C3%B6lz", "name_url": "Bad_T%C3%B6lz", "lat_lng": {"lat": "47.760277777778", "lng": "11.556666666667"}, "land": "Bayern", "kreis": "Bad T\u00f6lz-Wolfratshausen", "height": "658\u00a0m \u00fc.\u00a0NHN\n", "size": "30,8\u00a0km2\n", "inhabitants": "18.802 (31.\u00a0Dez.\u00a02018)[1]\n", "inhabitants_km": "610\u00a0Einwohner je km2\n"}, {"name": "Bad Urach", "url": "https://de.wikipedia.org/wiki/Bad_Urach", "name_url": "Bad_Urach", "lat_lng": {"lat": "48.49403", "lng": "9.39873"}, "land": "Baden-W\u00fcrttemberg", "kreis": "Reutlingen", "height": "463\u00a0m \u00fc.\u00a0NHN\n", "size": "55,45\u00a0km2\n", "inhabitants": "12.472 (31.\u00a0Dez.\u00a02018)[1]\n", "inhabitants_km": "225\u00a0Einwohner je km2\n"}, {"name": "Bad Vilbel", "url": "https://de.wikipedia.org/wiki/Bad_Vilbel", "name_url": "Bad_Vilbel", "lat_lng": {"lat": "50.1775", "lng": "8.7352777777778"}, "land": "Hessen", "kreis": "Wetteraukreis", "height": "111\u00a0m \u00fc.\u00a0NHN\n", "size": "25,68\u00a0km2\n", "inhabitants": "33.990 (31.\u00a0Dez.\u00a02018)[1]\n", "inhabitants_km": "1324\u00a0Einwohner je km2\n"}, {"name": "Bad Waldsee", "url": "https://de.wikipedia.org/wiki/Bad_Waldsee", "name_url": "Bad_Waldsee", "lat_lng": {"lat": "47.921111111111", "lng": "9.7519444444444"}, "land": "Baden-W\u00fcrttemberg", "kreis": "Ravensburg", "height": "588\u00a0m \u00fc.\u00a0NHN\n", "size": "108,55\u00a0km2\n", "inhabitants": "20.308 (31.\u00a0Dez.\u00a02018)[1]\n", "inhabitants_km": "187\u00a0Einwohner je km2\n", "founded": {"txt": "1298 Bad Waldsee", "year": "1298"}}, {"name": "Bad Wildbad", "url": "https://de.wikipedia.org/wiki/Bad_Wildbad", "name_url": "Bad_Wildbad", "lat_lng": {"lat": "48.749166666667", "lng": "8.5508333333333"}, "land": "Baden-W\u00fcrttemberg", "kreis": "Calw", "height": "425\u00a0m \u00fc.\u00a0NHN\n", "size": "105,27\u00a0km2\n", "inhabitants": "10.130 (31.\u00a0Dez.\u00a02018)[1]\n", "inhabitants_km": "96\u00a0Einwohner je km2\n"}, {"name": "Bad Wildungen", "url": "https://de.wikipedia.org/wiki/Bad_Wildungen", "name_url": "Bad_Wildungen", "lat_lng": {"lat": "51.116666666667", "lng": "9.1166666666667"}, "land": "Hessen", "kreis": "Waldeck-Frankenberg", "height": "275\u00a0m \u00fc.\u00a0NHN\n", "size": "120,08\u00a0km2\n", "inhabitants": "17.137 (31.\u00a0Dez.\u00a02018)[1]\n", "inhabitants_km": "143\u00a0Einwohner je km2\n"}, {"name": "Bad Wilsnack", "url": "https://de.wikipedia.org/wiki/Bad_Wilsnack", "name_url": "Bad_Wilsnack", "lat_lng": {"lat": "52.95", "lng": "11.949722222222"}, "land": "Brandenburg", "kreis": "Prignitz", "height": "27\u00a0m \u00fc.\u00a0NHN\n", "size": "79,69\u00a0km2\n", "inhabitants": "2532 (31.\u00a0Dez.\u00a02018)[1]\n", "inhabitants_km": "32\u00a0Einwohner je km2\n", "first_mentioned": {"txt": "1384 Bad Wilsnack, erste urkundliche Erw\u00e4hnung", "year": "1384"}}, {"name": "Bad Wimpfen", "url": "https://de.wikipedia.org/wiki/Bad_Wimpfen", "name_url": "Bad_Wimpfen", "lat_lng": {"lat": "49.230416666667", "lng": "9.1631666666667"}, "land": "Baden-W\u00fcrttemberg", "kreis": "Heilbronn", "height": "195\u00a0m \u00fc.\u00a0NHN\n", "size": "19,38\u00a0km2\n", "inhabitants": "7359 (31.\u00a0Dez.\u00a02018)[1]\n", "inhabitants_km": "380\u00a0Einwohner je km2\n"}, {"name": "Bad Windsheim", "url": "https://de.wikipedia.org/wiki/Bad_Windsheim", "name_url": "Bad_Windsheim", "lat_lng": {"lat": "49.5", "lng": "10.416666666667"}, "land": "Bayern", "kreis": "Neustadt an der Aisch-Bad Windsheim", "height": "321\u00a0m \u00fc.\u00a0NHN\n", "size": "78,25\u00a0km2\n", "inhabitants": "12.382 (31.\u00a0Dez.\u00a02018)[1]\n", "inhabitants_km": "158\u00a0Einwohner je km2\n"}, {"name": "Bad W\u00f6rishofen", "url": "https://de.wikipedia.org/wiki/Bad_W%C3%B6rishofen", "name_url": "Bad_W%C3%B6rishofen", "lat_lng": {"lat": "48.002777777778", "lng": "10.5925"}, "land": "Bayern", "kreis": "Unterallg\u00e4u", "height": "630\u00a0m \u00fc.\u00a0NHN\n", "size": "57,79\u00a0km2\n", "inhabitants": "15.963 (31.\u00a0Dez.\u00a02018)[1]\n", "inhabitants_km": "276\u00a0Einwohner je km2\n"}, {"name": "Bad W\u00fcnnenberg", "url": "https://de.wikipedia.org/wiki/Bad_W%C3%BCnnenberg", "name_url": "Bad_W%C3%BCnnenberg", "lat_lng": {"lat": "51.516666666667", "lng": "8.7"}, "land": "Nordrhein-Westfalen", "height": "334\u00a0m \u00fc.\u00a0NHN\n", "size": "161,3\u00a0km2\n", "inhabitants": "12.177 (31.\u00a0Dez.\u00a02018)[1]\n", "inhabitants_km": "75\u00a0Einwohner je km2\n"}, {"name": "Bad Wurzach", "url": "https://de.wikipedia.org/wiki/Bad_Wurzach", "name_url": "Bad_Wurzach", "lat_lng": {"lat": "47.909444444444", "lng": "9.8994444444444"}, "land": "Baden-W\u00fcrttemberg", "kreis": "Ravensburg", "height": "654\u00a0m \u00fc.\u00a0NHN\n", "size": "182,26\u00a0km2\n", "inhabitants": "14.651 (31.\u00a0Dez.\u00a02018)[1]\n", "inhabitants_km": "80\u00a0Einwohner je km2\n", "founded": {"txt": "1333 Bad Wurzach", "year": "1333"}}, {"name": "Baesweiler", "url": "https://de.wikipedia.org/wiki/Baesweiler", "name_url": "Baesweiler", "lat_lng": {"lat": "50.9", "lng": "6.1833333333333"}, "land": "Nordrhein-Westfalen", "height": "130\u00a0m \u00fc.\u00a0NHN\n", "size": "27,76\u00a0km2\n", "inhabitants": "27.033 (31.\u00a0Dez.\u00a02018)[1]\n", "inhabitants_km": "974\u00a0Einwohner je km2\n"}, {"name": "Baiersdorf", "url": "https://de.wikipedia.org/wiki/Baiersdorf", "name_url": "Baiersdorf", "lat_lng": {"lat": "49.656388888889", "lng": "11.032777777778"}, "land": "Bayern", "kreis": "Erlangen-H\u00f6chstadt", "height": "275\u00a0m \u00fc.\u00a0NHN\n", "size": "11,8\u00a0km2\n", "inhabitants": "7794 (31.\u00a0Dez.\u00a02018)[1]\n", "inhabitants_km": "661\u00a0Einwohner je km2\n"}, {"name": "Balingen", "url": "https://de.wikipedia.org/wiki/Balingen", "name_url": "Balingen", "lat_lng": {"lat": "48.273055555556", "lng": "8.8505555555556"}, "land": "Baden-W\u00fcrttemberg", "kreis": "Zollernalbkreis", "height": "517\u00a0m \u00fc.\u00a0NHN\n", "size": "90,34\u00a0km2\n", "inhabitants": "34.217 (31.\u00a0Dez.\u00a02018)[1]\n", "inhabitants_km": "379\u00a0Einwohner je km2\n", "first_mentioned": {"txt": "863 Balingen, erste urkundliche Erw\u00e4hnung als \u201eBalginga\u201c", "year": "863"}, "founded": {"txt": "1255 Balingen, Stadtgr\u00fcndung, (Ersterw\u00e4hnung der Ursprungssiedlung im Jahr 863)", "year": "1255"}}, {"name": "Ballenstedt", "url": "https://de.wikipedia.org/wiki/Ballenstedt", "name_url": "Ballenstedt", "lat_lng": {"lat": "51.72", "lng": "11.2375"}, "land": "Sachsen-Anhalt", "kreis": "Harz", "height": "236\u00a0m \u00fc.\u00a0NHN\n", "size": "86,65\u00a0km2\n", "inhabitants": "8940 (31.\u00a0Dez.\u00a02018)[1]\n", "inhabitants_km": "103\u00a0Einwohner je km2\n"}, {"name": "Balve", "url": "https://de.wikipedia.org/wiki/Balve", "name_url": "Balve", "lat_lng": {"lat": "51.330277777778", "lng": "7.8641666666667"}, "land": "Nordrhein-Westfalen", "height": "250\u00a0m \u00fc.\u00a0NHN\n", "size": "74,81\u00a0km2\n", "inhabitants": "11.361 (31.\u00a0Dez.\u00a02018)[1]\n", "inhabitants_km": "152\u00a0Einwohner je km2\n"}, {"name": "Bamberg", "url": "https://de.wikipedia.org/wiki/Bamberg", "name_url": "Bamberg", "lat_lng": {"lat": "49.891666666667", "lng": "10.891666666667"}, "land": "Bayern", "height": "262\u00a0m \u00fc.\u00a0NHN\n", "size": "54,62\u00a0km2\n", "inhabitants": "77.592 (31.\u00a0Dez.\u00a02018)[1]\n", "inhabitants_km": "1420\u00a0Einwohner je km2\n", "first_mentioned": {"txt": "902 Bamberg, erste urkundliche Erw\u00e4hnung", "year": "902"}}, {"name": "Barby", "url": "https://de.wikipedia.org/wiki/Barby", "name_url": "Barby", "lat_lng": {"lat": "51.967222222222", "lng": "11.884722222222"}, "land": "Sachsen-Anhalt", "kreis": "Salzlandkreis", "height": "51\u00a0m \u00fc.\u00a0NHN\n", "size": "152,75\u00a0km2\n", "inhabitants": "8394 (31.\u00a0Dez.\u00a02018)[1]\n", "inhabitants_km": "55\u00a0Einwohner je km2\n"}, {"name": "Bargteheide", "url": "https://de.wikipedia.org/wiki/Bargteheide", "name_url": "Bargteheide", "lat_lng": {"lat": "53.72863", "lng": "10.26079"}, "land": "Schleswig-Holstein", "height": "48\u00a0m \u00fc.\u00a0NHN\n", "size": "15,83\u00a0km2\n", "inhabitants": "16.109 (31.\u00a0Dez.\u00a02018)[1]\n", "inhabitants_km": "1018\u00a0Einwohner je km2\n"}, {"name": "Barmstedt", "url": "https://de.wikipedia.org/wiki/Barmstedt", "name_url": "Barmstedt", "lat_lng": {"lat": "53.783333333333", "lng": "9.7666666666667"}, "land": "Schleswig-Holstein", "height": "11\u00a0m \u00fc.\u00a0NHN\n", "size": "17,17\u00a0km2\n", "inhabitants": "10.368 (31.\u00a0Dez.\u00a02018)[1]\n", "inhabitants_km": "604\u00a0Einwohner je km2\n", "founded": {"txt": "1898 Barmstedt", "year": "1898 "}}, {"name": "B\u00e4rnau", "url": "https://de.wikipedia.org/wiki/B%C3%A4rnau", "name_url": "B%C3%A4rnau", "lat_lng": {"lat": "49.810277777778", "lng": "12.436111111111"}, "land": "Bayern", "kreis": "Tirschenreuth", "height": "615\u00a0m \u00fc.\u00a0NHN\n", "size": "74,42\u00a0km2\n", "inhabitants": "3153 (31.\u00a0Dez.\u00a02018)[1]\n", "inhabitants_km": "42\u00a0Einwohner je km2\n"}, {"name": "Barntrup", "url": "https://de.wikipedia.org/wiki/Barntrup", "name_url": "Barntrup", "lat_lng": {"lat": "51.983055555556", "lng": "9.1166666666667"}, "land": "Nordrhein-Westfalen", "height": "203\u00a0m \u00fc.\u00a0NHN\n", "size": "59,46\u00a0km2\n", "inhabitants": "8587 (31.\u00a0Dez.\u00a02018)[1]\n", "inhabitants_km": "144\u00a0Einwohner je km2\n"}, {"name": "Barsinghausen", "url": "https://de.wikipedia.org/wiki/Barsinghausen", "name_url": "Barsinghausen", "lat_lng": {"lat": "52.303055555556", "lng": "9.4605555555556"}, "land": "Niedersachsen", "kreis": "Region Hannover", "height": "73\u00a0m \u00fc.\u00a0NHN\n", "size": "102,68\u00a0km2\n", "inhabitants": "34.234 (31.\u00a0Dez.\u00a02018)[1]\n", "inhabitants_km": "333\u00a0Einwohner je km2\n"}, {"name": "Barth", "url": "https://de.wikipedia.org/wiki/Barth", "name_url": "Barth", "lat_lng": {"lat": "54.366666666667", "lng": "12.716666666667"}, "land": "Mecklenburg-Vorpommern", "kreis": "Vorpommern-R\u00fcgen", "height": "5\u00a0m \u00fc.\u00a0NHN\n", "size": "41,1\u00a0km2\n", "inhabitants": "8658 (31.\u00a0Dez.\u00a02018)[1]\n", "inhabitants_km": "211\u00a0Einwohner je km2\n", "founded": {"txt": "1159 Barth, urk. Ersterw\u00e4hnung als provincia Barta, 1255 Stadtrechtsverleihung (L\u00fcbisches Recht) durch R\u00fcgenf\u00fcrst Jaromar II.", "year": "1159"}}, {"name": "Baruth/Mark", "url": "https://de.wikipedia.org/wiki/Baruth/Mark", "name_url": "Baruth/Mark", "lat_lng": {"lat": "52.05", "lng": "13.504166666667"}, "land": "Brandenburg", "kreis": "Teltow-Fl\u00e4ming", "height": "58\u00a0m \u00fc.\u00a0NHN\n", "size": "233,84\u00a0km2\n", "inhabitants": "4200 (31.\u00a0Dez.\u00a02018)[1]\n", "inhabitants_km": "18\u00a0Einwohner je km2\n", "founded": {"txt": "1616 Baruth/Mark", "year": "1616"}}, {"name": "Bassum", "url": "https://de.wikipedia.org/wiki/Bassum", "name_url": "Bassum", "lat_lng": {"lat": "52.849444444444", "lng": "8.7266666666667"}, "land": "Niedersachsen", "kreis": "Diepholz", "height": "42\u00a0m \u00fc.\u00a0NHN\n", "size": "168,58\u00a0km2\n", "inhabitants": "15.955 (31.\u00a0Dez.\u00a02018)[1]\n", "inhabitants_km": "95\u00a0Einwohner je km2\n", "founded": {"txt": "1929 Bassum (vorher Flecken)", "year": "1929 "}}, {"name": "Battenberg (Eder)", "url": "https://de.wikipedia.org/wiki/Battenberg_(Eder)", "name_url": "Battenberg_(Eder)", "lat_lng": {"lat": "51.015", "lng": "8.645"}, "land": "Hessen", "kreis": "Waldeck-Frankenberg", "height": "340\u00a0m \u00fc.\u00a0NHN\n", "size": "64,73\u00a0km2\n", "inhabitants": "5323 (31.\u00a0Dez.\u00a02018)[1]\n", "inhabitants_km": "82\u00a0Einwohner je km2\n"}, {"name": "Baumholder", "url": "https://de.wikipedia.org/wiki/Baumholder", "name_url": "Baumholder", "lat_lng": {"lat": "49.615555555556", "lng": "7.3366666666667"}, "land": "Rheinland-Pfalz", "kreis": "Birkenfeld", "height": "488\u00a0m \u00fc.\u00a0NHN\n", "size": "69,47\u00a0km2\n", "inhabitants": "4203 (31.\u00a0Dez.\u00a02018)[1]\n", "inhabitants_km": "61\u00a0Einwohner je km2\n"}, {"name": "Baunach", "url": "https://de.wikipedia.org/wiki/Baunach", "name_url": "Baunach", "lat_lng": {"lat": "49.983333333333", "lng": "10.85"}, "land": "Bayern", "kreis": "Bamberg", "height": "238\u00a0m \u00fc.\u00a0NHN\n", "size": "32,14\u00a0km2\n", "inhabitants": "4019 (31.\u00a0Dez.\u00a02018)[1]\n"}, {"name": "Baunatal", "url": "https://de.wikipedia.org/wiki/Baunatal", "name_url": "Baunatal", "lat_lng": {"lat": "51.25337", "lng": "9.4123"}, "land": "Hessen", "kreis": "Kassel", "height": "210\u00a0m \u00fc.\u00a0NHN\n", "size": "38,26\u00a0km2\n", "inhabitants": "27.750 (31.\u00a0Dez.\u00a02018)[1]\n", "inhabitants_km": "725\u00a0Einwohner je km2\n", "founded": {"txt": "1966 Baunatal", "year": "1966"}}, {"name": "Bautzen", "url": "https://de.wikipedia.org/wiki/Bautzen", "name_url": "Bautzen", "lat_lng": {"lat": "51.181388888889", "lng": "14.423888888889"}, "land": "Sachsen", "kreis": "Bautzen", "height": "204\u00a0m \u00fc.\u00a0NHN\n", "size": "66,67\u00a0km2\n", "inhabitants": "39.087 (31.\u00a0Dez.\u00a02018)[1]\n", "inhabitants_km": "586\u00a0Einwohner je km2\n", "first_mentioned": {"txt": "1213 Bautzen (Erw\u00e4hnung des Stadtrechtes, erste Stadtrechte bereits sp\u00e4testens 1157 verliehen \u2013 es existiert keine Urkunde (mehr) \u00fcber die Erstverleihung)", "year": "1213"}, "founded": {"txt": "1157 Bautzen \u2013 Erteilung von einzelnen Stadtrechten \u2013 unsicher ob schon volles Stadtrecht \u2013 dieses sp\u00e4testens seit 1213 (schrittweise Verleihung der Stadtrechte)", "year": "1157"}}, {"name": "Bayreuth", "url": "https://de.wikipedia.org/wiki/Bayreuth", "name_url": "Bayreuth", "lat_lng": {"lat": "49.948055555556", "lng": "11.578333333333"}, "land": "Bayern", "height": "340\u00a0m \u00fc.\u00a0NHN\n", "size": "66,93\u00a0km2\n", "inhabitants": "74.657 (31.\u00a0Dez.\u00a02018)[1]\n", "inhabitants_km": "1115\u00a0Einwohner je km2\n", "first_mentioned": {"txt": "1194 Bayreuth, erste urkundliche Erw\u00e4hnung", "year": "1194"}, "founded": {"txt": "1231 Bayreuth", "year": "1231"}}, {"name": "Bebra", "url": "https://de.wikipedia.org/wiki/Bebra", "name_url": "Bebra", "lat_lng": {"lat": "50.971111111111", "lng": "9.7902777777778"}, "land": "Hessen", "kreis": "Hersfeld-Rotenburg", "height": "195\u00a0m \u00fc.\u00a0NHN\n", "size": "93,64\u00a0km2\n", "inhabitants": "13.962 (31.\u00a0Dez.\u00a02018)[1]\n", "inhabitants_km": "149\u00a0Einwohner je km2\n"}, {"name": "Beckum", "url": "https://de.wikipedia.org/wiki/Beckum", "name_url": "Beckum", "lat_lng": {"lat": "51.755", "lng": "8.0402777777778"}, "land": "Nordrhein-Westfalen", "height": "100\u00a0m \u00fc.\u00a0NHN\n", "size": "111,46\u00a0km2\n", "inhabitants": "36.646 (31.\u00a0Dez.\u00a02018)[1]\n", "inhabitants_km": "329\u00a0Einwohner je km2\n"}, {"name": "Bedburg", "url": "https://de.wikipedia.org/wiki/Bedburg", "name_url": "Bedburg", "lat_lng": {"lat": "51", "lng": "6.5625"}, "land": "Nordrhein-Westfalen", "height": "70\u00a0m \u00fc.\u00a0NHN\n", "size": "80,42\u00a0km2\n", "inhabitants": "23.531 (31.\u00a0Dez.\u00a02018)[1]\n", "inhabitants_km": "293\u00a0Einwohner je km2\n"}, {"name": "Beelitz", "url": "https://de.wikipedia.org/wiki/Beelitz", "name_url": "Beelitz", "lat_lng": {"lat": "52.23323", "lng": "12.97711"}, "land": "Brandenburg", "kreis": "Potsdam-Mittelmark", "height": "40\u00a0m \u00fc.\u00a0NHN\n", "size": "181,22\u00a0km2\n", "inhabitants": "12.448 (31.\u00a0Dez.\u00a02018)[1]\n", "inhabitants_km": "69\u00a0Einwohner je km2\n"}, {"name": "Beeskow", "url": "https://de.wikipedia.org/wiki/Beeskow", "name_url": "Beeskow", "lat_lng": {"lat": "52.171666666667", "lng": "14.246944444444"}, "land": "Brandenburg", "kreis": "Oder-Spree", "height": "40\u00a0m \u00fc.\u00a0NHN\n", "size": "77,82\u00a0km2\n", "inhabitants": "8042 (31.\u00a0Dez.\u00a02018)[1]\n", "inhabitants_km": "103\u00a0Einwohner je km2\n", "first_mentioned": {"txt": "1272 Beeskow, erste urkundliche Erw\u00e4hnung", "year": "1272"}}, {"name": "Beilngries", "url": "https://de.wikipedia.org/wiki/Beilngries", "name_url": "Beilngries", "lat_lng": {"lat": "49.033333333333", "lng": "11.466666666667"}, "land": "Bayern", "kreis": "Eichst\u00e4tt", "height": "368\u00a0m \u00fc.\u00a0NHN\n", "size": "100,07\u00a0km2\n", "inhabitants": "9768 (31.\u00a0Dez.\u00a02018)[1]\n", "inhabitants_km": "98\u00a0Einwohner je km2\n"}, {"name": "Beilstein (W\u00fcrttemberg)", "url": "https://de.wikipedia.org/wiki/Beilstein_(W%C3%BCrttemberg)", "name_url": "Beilstein_(W%C3%BCrttemberg)", "lat_lng": {"lat": "49.041388888889", "lng": "9.3144444444444"}, "land": "Baden-W\u00fcrttemberg", "kreis": "Heilbronn", "height": "257\u00a0m \u00fc.\u00a0NHN\n", "size": "25,25\u00a0km2\n", "inhabitants": "6195 (31.\u00a0Dez.\u00a02018)[1]\n", "inhabitants_km": "245\u00a0Einwohner je km2\n"}, {"name": "Belgern-Schildau", "url": "https://de.wikipedia.org/wiki/Belgern-Schildau", "name_url": "Belgern-Schildau", "lat_lng": {"lat": "51.482222222222", "lng": "13.125916666667"}, "land": "Sachsen", "kreis": "Nordsachsen", "height": "127\u00a0m \u00fc.\u00a0NHN\n", "size": "158,98\u00a0km2\n", "inhabitants": "7701 (31.\u00a0Dez.\u00a02018)[1]\n", "inhabitants_km": "48\u00a0Einwohner je km2\n", "founded": {"txt": "2013 Belgern-Schildau (Landkreis Nordsachsen), \u00fcbernimmt das Stadtrecht der beiden St\u00e4dte Belgern und Schildau", "year": "2013"}}, {"name": "Bendorf", "url": "https://de.wikipedia.org/wiki/Bendorf", "name_url": "Bendorf", "lat_lng": {"lat": "50.429722222222", "lng": "7.5702777777778"}, "land": "Rheinland-Pfalz", "kreis": "Mayen-Koblenz", "height": "115\u00a0m \u00fc.\u00a0NHN\n", "size": "24,07\u00a0km2\n", "inhabitants": "16.940 (31.\u00a0Dez.\u00a02018)[1]\n", "inhabitants_km": "704\u00a0Einwohner je km2\n"}, {"name": "Bensheim", "url": "https://de.wikipedia.org/wiki/Bensheim", "name_url": "Bensheim", "lat_lng": {"lat": "49.681111111111", "lng": "8.6227777777778"}, "land": "Hessen", "height": "115\u00a0m \u00fc.\u00a0NHN\n", "size": "57,83\u00a0km2\n", "inhabitants": "40.456 (31.\u00a0Dez.\u00a02018)[1]\n", "inhabitants_km": "700\u00a0Einwohner je km2\n", "first_mentioned": {"txt": "765 Bensheim, erste urkundliche Erw\u00e4hnung im Lorscher Codex des Klosters Lorsch als \u201eBasinusheim\u201c", "year": "765 "}}, {"name": "Berching", "url": "https://de.wikipedia.org/wiki/Berching", "name_url": "Berching", "lat_lng": {"lat": "49.1", "lng": "11.433333333333"}, "land": "Bayern", "kreis": "Neumarkt in der Oberpfalz", "height": "385\u00a0m \u00fc.\u00a0NHN\n", "size": "131,18\u00a0km2\n", "inhabitants": "8702 (31.\u00a0Dez.\u00a02018)[1]\n", "inhabitants_km": "66\u00a0Einwohner je km2\n"}, {"name": "Berga/Elster", "url": "https://de.wikipedia.org/wiki/Berga/Elster", "name_url": "Berga/Elster", "lat_lng": {"lat": "50.753611111111", "lng": "12.165"}, "land": "Th\u00fcringen", "kreis": "Greiz", "height": "229\u00a0m \u00fc.\u00a0NHN\n", "size": "43,52\u00a0km2\n", "inhabitants": "3297 (31.\u00a0Dez.\u00a02018)[1]\n", "inhabitants_km": "76\u00a0Einwohner je km2\n", "first_mentioned": {"txt": "1216 Berga/Elster, erste urkundliche Erw\u00e4hnung", "year": "1216"}, "founded": {"txt": "1310 Berga/Elster", "year": "1310"}}, {"name": "Bergen (Landkreis Celle)", "url": "https://de.wikipedia.org/wiki/Bergen_(Landkreis_Celle)", "name_url": "Bergen_(Landkreis_Celle)", "lat_lng": {"lat": "52.810277777778", "lng": "9.9611111111111"}, "land": "Niedersachsen", "kreis": "Celle", "height": "77\u00a0m \u00fc.\u00a0NHN\n", "size": "163,83\u00a0km2\n", "inhabitants": "13.556 (31.\u00a0Dez.\u00a02018)[1]\n", "inhabitants_km": "83\u00a0Einwohner je km2\n"}, {"name": "Bergen auf R\u00fcgen", "url": "https://de.wikipedia.org/wiki/Bergen_auf_R%C3%BCgen", "name_url": "Bergen_auf_R%C3%BCgen", "lat_lng": {"lat": "54.416666666667", "lng": "13.433333333333"}, "land": "Mecklenburg-Vorpommern", "kreis": "Vorpommern-R\u00fcgen", "height": "63\u00a0m \u00fc.\u00a0NHN\n", "size": "51,42\u00a0km2\n", "inhabitants": "13.460 (31.\u00a0Dez.\u00a02018)[1]\n", "inhabitants_km": "262\u00a0Einwohner je km2\n", "first_mentioned": {"txt": "1232 Bergen auf R\u00fcgen, erste urkundliche Erwahnung als Gora", "year": "1232 "}}, {"name": "Bergheim", "url": "https://de.wikipedia.org/wiki/Bergheim", "name_url": "Bergheim", "lat_lng": {"lat": "50.95406", "lng": "6.64124"}, "land": "Nordrhein-Westfalen", "height": "72\u00a0m \u00fc.\u00a0NHN\n", "size": "96,34\u00a0km2\n", "inhabitants": "61.612 (31.\u00a0Dez.\u00a02018)[1]\n", "inhabitants_km": "640\u00a0Einwohner je km2\n"}, {"name": "Bergisch Gladbach", "url": "https://de.wikipedia.org/wiki/Bergisch_Gladbach", "name_url": "Bergisch_Gladbach", "lat_lng": {"lat": "50.991666666667", "lng": "7.1361111111111"}, "land": "Nordrhein-Westfalen", "height": "100\u00a0m \u00fc.\u00a0NHN\n", "size": "83,09\u00a0km2\n", "inhabitants": "111.966 (31.\u00a0Dez.\u00a02018)[1]\n", "inhabitants_km": "1348\u00a0Einwohner je km2\n", "first_mentioned": {"txt": "1271 Bergisch Gladbach, erste urkundliche Erw\u00e4hnung", "year": "1271"}, "founded": {"txt": "1856 Bergisch Gladbach", "year": "1856"}}, {"name": "Bergkamen", "url": "https://de.wikipedia.org/wiki/Bergkamen", "name_url": "Bergkamen", "lat_lng": {"lat": "51.616666666667", "lng": "7.6333333333333"}, "land": "Nordrhein-Westfalen", "height": "65\u00a0m \u00fc.\u00a0NHN\n", "size": "44,9\u00a0km2\n", "inhabitants": "50.407[1]Vorlage:Infobox Verwaltungseinheit in Deutschland/Wartung/Noch nicht auf Metavorlage umgestellt\n", "founded": {"txt": "1966 Bergkamen", "year": "1966 "}}, {"name": "Bergneustadt", "url": "https://de.wikipedia.org/wiki/Bergneustadt", "name_url": "Bergneustadt", "lat_lng": {"lat": "51.020833333333", "lng": "7.6480555555556"}, "land": "Nordrhein-Westfalen", "height": "240\u00a0m \u00fc.\u00a0NHN\n", "size": "37,89\u00a0km2\n", "inhabitants": "18.865 (31.\u00a0Dez.\u00a02018)[1]\n", "inhabitants_km": "498\u00a0Einwohner je km2\n", "first_mentioned": {"txt": "1301 Bergneustadt, erste urkundliche Erw\u00e4hnung", "year": "1301"}}, {"name": "Berlin", "url": "https://de.wikipedia.org/wiki/Berlin", "name_url": "Berlin", "founded": {"txt": "um 1250 Berlin", "year": "um 1250 "}}, {"name": "Bernau bei Berlin", "url": "https://de.wikipedia.org/wiki/Bernau_bei_Berlin", "name_url": "Bernau_bei_Berlin", "lat_lng": {"lat": "52.679166666667", "lng": "13.587777777778"}, "land": "Brandenburg", "kreis": "Barnim", "height": "68\u00a0m \u00fc.\u00a0NHN\n", "size": "104,16\u00a0km2\n", "inhabitants": "38.825 (31.\u00a0Dez.\u00a02018)[1]\n", "inhabitants_km": "373\u00a0Einwohner je km2\n"},